$GNRMC,183006.00,A,1257.45635,N,07738.50236,E,0.010,,141024,,,D,V*17
$GNVTG,,T,,M,0.010,N,0.019,K,D*31
$GNGGA,183006.00,1257.45635,N,07738.50236,E,2,12,0.69,903.7,M,-86.4,M,,0000*62
$GNGSA,A,3,14,11,20,13,06,17,22,19,41,,,,1.07,0.69,0.82,1*0A
$GNGSA,A,3,,,,,,,,,,,,,1.07,0.69,0.82,2*01
$GNGSA,A,3,12,06,24,10,09,31,33,,,,,,1.07,0.69,0.82,3*09
$GNGSA,A,3,25,24,11,09,10,16,02,,,,,,1.07,0.69,0.82,4*0B
$GPGSV,4,1,16,05,15,192,,06,53,016,38,11,70,259,40,12,14,326,,1*6D
$GPGSV,4,2,16,13,11,204,28,14,32,114,32,15,00,229,,17,18,047,31,1*69
$GPGSV,4,3,16,19,31,022,34,20,42,171,36,22,49,089,36,24,34,285,,1*68
$GPGSV,4,4,16,30,03,155,,40,60,241,40,41,73,157,37,50,32,101,,1*61
$GLGSV,2,1,07,65,06,133,,76,32,145,,77,78,105,,78,33,338,,1*74
$GLGSV,2,2,07,81,27,252,,87,16,019,,88,48,320,,1*4B
$GAGSV,3,1,09,04,10,178,,06,12,202,27,09,09,224,27,10,66,246,38,7*78
$GAGSV,3,2,09,11,39,228,,12,77,335,33,24,34,337,35,31,61,053,36,7*79
$GAGSV,3,3,09,33,26,030,32,7*4C
$GBGSV,5,1,17,01,14,095,,02,71,157,28,03,49,110,,06,25,170,,1*78
$GBGSV,5,2,17,07,40,051,,08,55,108,,09,34,177,22,10,46,034,24,1*7C
$GBGSV,5,3,17,11,45,356,29,12,09,040,,13,56,131,,16,17,164,21,1*71
$GBGSV,5,4,17,21,07,083,,23,34,320,,24,33,148,29,25,83,235,33,1*71
$GBGSV,5,5,17,28,16,256,,1*4C
$GNGLL,1257.45635,N,07738.50236,E,183006.00,A,D*77
µb
8             a ¾ÿëê   [$GNRMC,183007.00,A,1257.45636,N,07738.50235,E,0.040,,141024,,,D,V*13
$GNVTG,,T,,M,0.040,N,0.074,K,D*3F
$GNGGA,183007.00,1257.45636,N,07738.50235,E,2,12,0.69,903.7,M,-86.4,M,,0000*63
$GNGSA,A,3,14,11,20,13,06,17,22,19,41,,,,1.07,0.69,0.82,1*0A
$GNGSA,A,3,,,,,,,,,,,,,1.07,0.69,0.82,2*01
$GNGSA,A,3,12,06,24,10,09,31,33,,,,,,1.07,0.69,0.82,3*09
$GNGSA,A,3,25,24,11,09,10,16,02,,,,,,1.07,0.69,0.82,4*0B
$GPGSV,4,1,16,05,15,192,,06,53,016,36,11,70,259,39,12,14,326,,1*6D
$GPGSV,4,2,16,13,11,204,28,14,32,114,32,15,00,229,,17,18,047,31,1*69
$GPGSV,4,3,16,19,31,022,34,20,42,171,34,22,49,089,35,24,34,285,,1*69
$GPGSV,4,4,16,30,03,155,,40,60,241,40,41,73,157,37,50,32,101,,1*61
$GLGSV,2,1,07,65,06,133,,76,32,145,,77,78,105,,78,33,338,,1*74
$GLGSV,2,2,07,81,27,252,,87,16,019,,88,48,320,,1*4B
$GAGSV,3,1,09,04,10,178,,06,12,202,27,09,09,224,27,10,66,246,37,7*77
$GAGSV,3,2,09,11,39,228,,12,77,335,33,24,34,337,35,31,61,053,36,7*79
$GAGSV,3,3,09,33,26,030,32,7*4C
$GBGSV,5,1,17,01,14,095,,02,71,157,28,03,49,110,,06,25,170,,1*78
$GBGSV,5,2,17,07,40,051,,08,55,108,,09,34,177,22,10,46,034,23,1*7B
$GBGSV,5,3,17,11,45,356,29,12,09,040,,13,56,131,,16,17,164,20,1*70
$GBGSV,5,4,17,21,07,083,,23,34,320,,24,33,148,28,25,83,235,33,1*70
$GBGSV,5,5,17,28,16,256,,1*4C
$GNGLL,1257.45636,N,07738.50235,E,183007.00,A,D*76
µb
8             b ¾ÿ é æ   Tö$GNRMC,183008.00,A,1257.45637,N,07738.50235,E,0.033,,141024,,,D,V*19
$GNVTG,,T,,M,0.033,N,0.061,K,D*3F
$GNGGA,183008.00,1257.45637,N,07738.50235,E,2,12,0.69,903.7,M,-86.4,M,,0000*6D
$GNGSA,A,3,14,11,20,13,06,17,22,19,41,,,,1.07,0.69,0.82,1*0A
$GNGSA,A,3,,,,,,,,,,,,,1.07,0.69,0.82,2*01
$GNGSA,A,3,12,06,24,10,09,31,33,,,,,,1.07,0.69,0.82,3*09
$GNGSA,A,3,25,24,11,09,10,16,02,,,,,,1.07,0.69,0.82,4*0B
$GPGSV,4,1,16,05,15,192,,06,53,016,36,11,70,259,39,12,14,326,,1*6D
$GPGSV,4,2,16,13,11,204,28,14,32,114,32,15,00,229,,17,18,047,31,1*69
$GPGSV,4,3,16,19,31,022,34,20,42,171,35,22,49,089,34,24,34,285,,1*69
$GPGSV,4,4,16,30,03,154,,40,60,241,40,41,73,157,37,50,32,101,,1*60
$GLGSV,2,1,07,65,06,133,,76,32,145,,77,78,105,,78,33,338,,1*74
$GLGSV,2,2,07,81,27,252,,87,16,019,,88,48,320,,1*4B
$GAGSV,3,1,09,04,10,178,,06,12,202,26,09,09,224,27,10,66,246,37,7*76
$GAGSV,3,2,09,11,39,228,,12,77,335,33,24,34,337,35,31,61,053,36,7*79
$GAGSV,3,3,09,33,26,030,32,7*4C
$GBGSV,5,1,17,01,14,095,,02,71,157,28,03,49,110,,06,25,170,,1*78
$GBGSV,5,2,17,07,40,051,,08,55,108,,09,34,177,22,10,46,034,21,1*79
$GBGSV,5,3,17,11,45,356,29,12,09,040,,13,56,131,,16,17,164,20,1*70
$GBGSV,5,4,17,21,07,083,,23,34,320,,24,33,148,28,25,83,235,32,1*71
$GBGSV,5,5,17,28,16,256,,1*4C
$GNGLL,1257.45637,N,07738.50235,E,183008.00,A,D*78
µb
8             b ¾ÿèé   X$GNRMC,183009.00,A,1257.45637,N,07738.50234,E,0.013,,141024,,,D,V*1B
$GNVTG,,T,,M,0.013,N,0.025,K,D*3D
$GNGGA,183009.00,1257.45637,N,07738.50234,E,2,12,0.69,903.7,M,-86.4,M,,0000*6D
$GNGSA,A,3,14,11,20,13,06,17,22,19,41,,,,1.07,0.69,0.82,1*0A
$GNGSA,A,3,,,,,,,,,,,,,1.07,0.69,0.82,2*01
$GNGSA,A,3,12,06,24,10,09,31,33,,,,,,1.07,0.69,0.82,3*09
$GNGSA,A,3,25,24,11,09,10,16,02,,,,,,1.07,0.69,0.82,4*0B
$GPGSV,4,1,16,05,15,192,,06,53,016,38,11,70,259,39,12,14,326,,1*63
$GPGSV,4,2,16,13,11,204,28,14,32,114,32,15,00,229,,17,18,047,30,1*68
$GPGSV,4,3,16,19,31,022,35,20,42,171,35,22,49,089,35,24,34,285,,1*69
$GPGSV,4,4,16,30,03,154,,40,60,241,40,41,73,157,37,50,32,101,,1*60
$GLGSV,2,1,07,65,06,133,,76,32,145,,77,78,105,,78,33,338,,1*74
$GLGSV,2,2,07,81,27,252,,87,16,019,,88,48,320,,1*4B
$GAGSV,3,1,09,04,10,178,,06,12,202,26,09,09,224,27,10,66,246,38,7*79
$GAGSV,3,2,09,11,39,228,,12,77,335,33,24,34,337,35,31,61,053,37,7*78
$GAGSV,3,3,09,33,26,030,32,7*4C
$GBGSV,5,1,17,01,14,095,,02,71,157,28,03,49,110,,06,25,170,,1*78
$GBGSV,5,2,17,07,40,051,,08,55,108,,09,34,177,22,10,46,034,22,1*7A
$GBGSV,5,3,17,11,45,356,29,12,09,040,,13,56,131,,16,17,164,20,1*70
$GBGSV,5,4,17,21,07,083,,23,34,320,,24,33,148,28,25,83,235,33,1*70
$GBGSV,5,5,17,28,16,256,,1*4C
$GNGLL,1257.45637,N,07738.50234,E,183009.00,A,D*78
µb
8             b ¾ÿé è   X$GNRMC,183010.00,A,1257.45640,N,07738.50232,E,0.107,,141024,,,D,V*11
$GNVTG,,T,,M,0.107,N,0.198,K,D*3E
$GNGGA,183010.00,1257.45640,N,07738.50232,E,2,12,0.69,903.6,M,-86.4,M,,0000*62
$GNGSA,A,3,14,11,20,13,06,17,22,19,41,,,,1.07,0.69,0.82,1*0A
$GNGSA,A,3,,,,,,,,,,,,,1.07,0.69,0.82,2*01
$GNGSA,A,3,12,06,24,10,09,31,33,,,,,,1.07,0.69,0.82,3*09
$GNGSA,A,3,25,24,11,09,10,16,02,,,,,,1.07,0.69,0.82,4*0B
$GPGSV,4,1,16,05,15,192,,06,53,016,37,11,70,259,39,12,14,326,,1*6C
$GPGSV,4,2,16,13,11,204,27,14,32,114,32,15,00,229,,17,18,047,30,1*67
$GPGSV,4,3,16,19,31,022,35,20,42,171,35,22,49,089,35,24,34,285,,1*69
$GPGSV,4,4,16,30,03,154,,40,60,241,40,41,73,157,37,50,32,101,,1*60
$GLGSV,2,1,07,65,06,133,,76,32,145,,77,78,105,,78,33,338,,1*74
$GLGSV,2,2,07,81,27,252,,87,16,019,,88,48,320,,1*4B
$GAGSV,3,1,09,04,10,178,,06,12,202,26,09,09,224,26,10,66,246,38,7*78
$GAGSV,3,2,09,11,39,228,,12,77,335,33,24,34,337,35,31,61,053,36,7*79
$GAGSV,3,3,09,33,26,030,32,7*4C
$GBGSV,5,1,17,01,14,095,,02,71,157,28,03,49,110,,06,25,170,,1*78
$GBGSV,5,2,17,07,40,051,,08,55,108,,09,34,177,21,10,46,034,23,1*78
$GBGSV,5,3,17,11,45,356,29,12,09,040,,13,56,131,,16,17,164,20,1*70
$GBGSV,5,4,17,21,07,083,,23,34,320,,24,33,148,28,25,83,235,33,1*70
$GBGSV,5,5,17,28,16,256,,1*4C
$GNGLL,1257.45640,N,07738.50232,E,183010.00,A,D*76
µb
8             b ¾ÿè è   X
$GNRMC,183011.00,A,1257.45641,N,07738.50231,E,0.014,,141024,,,D,V*11
$GNVTG,,T,,M,0.014,N,0.026,K,D*39
$GNGGA,183011.00,1257.45641,N,07738.50231,E,2,12,0.69,903.6,M,-86.4,M,,0000*61
$GNGSA,A,3,14,11,20,13,06,17,22,19,41,,,,1.07,0.69,0.82,1*0A
$GNGSA,A,3,,,,,,,,,,,,,1.07,0.69,0.82,2*01
$GNGSA,A,3,12,06,24,10,09,31,33,,,,,,1.07,0.69,0.82,3*09
$GNGSA,A,3,25,24,11,09,10,16,02,,,,,,1.07,0.69,0.82,4*0B
$GPGSV,4,1,16,05,15,192,,06,53,016,37,11,70,259,39,12,14,326,,1*6C
$GPGSV,4,2,16,13,11,204,27,14,32,114,31,15,00,229,,17,18,047,30,1*64
$GPGSV,4,3,16,19,31,022,35,20,42,171,35,22,49,089,36,24,34,285,,1*6A
$GPGSV,4,4,16,30,03,154,,40,60,241,40,41,73,157,37,50,32,101,,1*60
$GLGSV,2,1,07,65,06,133,,76,32,145,,77,78,105,,78,33,338,,1*74
$GLGSV,2,2,07,81,27,252,,87,16,019,,88,48,320,,1*4B
$GAGSV,3,1,09,04,10,178,,06,12,202,25,09,09,224,26,10,66,246,38,7*7B
$GAGSV,3,2,09,11,39,228,,12,77,335,33,24,34,337,35,31,61,053,37,7*78
$GAGSV,3,3,09,33,26,030,31,7*4F
$GBGSV,5,1,17,01,14,095,,02,71,157,28,03,49,110,,06,25,170,,1*78
$GBGSV,5,2,17,07,40,051,,08,55,108,,09,34,177,21,10,46,034,22,1*79
$GBGSV,5,3,17,11,45,356,29,12,09,040,,13,56,131,,16,17,164,19,1*7A
$GBGSV,5,4,17,21,07,083,,23,34,320,,24,33,148,28,25,83,235,33,1*70
$GBGSV,5,5,17,28,16,256,,1*4C
$GNGLL,1257.45641,N,07738.50231,E,183011.00,A,D*75
µb
8             b ¾ÿèç   V $GNRMC,183012.00,A,1257.45642,N,07738.50231,E,0.023,,141024,,,D,V*15
$GNVTG,,T,,M,0.023,N,0.042,K,D*3F
$GNGGA,183012.00,1257.45642,N,07738.50231,E,2,12,0.69,903.5,M,-86.4,M,,0000*62
$GNGSA,A,3,14,11,20,13,06,17,22,19,41,,,,1.07,0.69,0.82,1*0A
$GNGSA,A,3,,,,,,,,,,,,,1.07,0.69,0.82,2*01
$GNGSA,A,3,12,06,24,10,09,31,33,,,,,,1.07,0.69,0.82,3*09
$GNGSA,A,3,25,24,11,09,10,16,02,,,,,,1.07,0.69,0.82,4*0B
$GPGSV,4,1,16,05,15,192,,06,53,016,35,11,70,259,39,12,14,326,,1*6E
$GPGSV,4,2,16,13,11,204,26,14,32,114,31,15,00,229,,17,18,047,30,1*65
$GPGSV,4,3,16,19,31,022,35,20,42,171,35,22,49,089,36,24,34,285,,1*6A
$GPGSV,4,4,16,30,03,154,,40,60,241,40,41,73,157,37,50,32,101,,1*60
$GLGSV,2,1,07,65,06,133,,76,32,145,,77,78,105,,78,33,338,,1*74
$GLGSV,2,2,07,81,27,252,,87,16,019,,88,48,320,,1*4B
$GAGSV,3,1,09,04,10,178,,06,12,202,25,09,09,224,26,10,66,246,36,7*75
$GAGSV,3,2,09,11,39,228,,12,77,335,33,24,34,337,35,31,61,053,34,7*7B
$GAGSV,3,3,09,33,26,030,31,7*4F
$GBGSV,5,1,17,01,14,095,,02,71,157,29,03,49,110,,06,25,170,,1*79
$GBGSV,5,2,17,07,40,051,,08,55,108,,09,34,177,22,10,46,034,22,1*7A
$GBGSV,5,3,17,11,45,356,29,12,09,040,,13,56,131,,16,17,164,19,1*7A
$GBGSV,5,4,17,21,07,083,,23,34,320,,24,33,148,29,25,83,235,33,1*71
$GBGSV,5,5,17,28,16,256,,1*4C
$GNGLL,1257.45642,N,07738.50231,E,183012.00,A,D*75
µb
8             b ¾ÿç ê   W$GNRMC,183013.00,A,1257.45644,N,07738.50230,E,0.022,,141024,,,D,V*12
$GNVTG,,T,,M,0.022,N,0.041,K,D*3D
$GNGGA,183013.00,1257.45644,N,07738.50230,E,2,12,0.69,903.5,M,-86.4,M,,0000*64
$GNGSA,A,3,14,11,20,13,06,17,22,19,41,,,,1.07,0.69,0.82,1*0A
$GNGSA,A,3,,,,,,,,,,,,,1.07,0.69,0.82,2*01
$GNGSA,A,3,12,06,24,10,09,31,33,,,,,,1.07,0.69,0.82,3*09
$GNGSA,A,3,25,24,11,09,10,16,02,,,,,,1.07,0.69,0.82,4*0B
$GPGSV,4,1,16,05,15,192,,06,53,016,36,11,70,259,39,12,14,326,,1*6D
$GPGSV,4,2,16,13,11,204,26,14,32,114,31,15,00,229,,17,18,047,29,1*6D
$GPGSV,4,3,16,19,31,022,36,20,42,171,35,22,49,089,35,24,34,285,,1*6A
$GPGSV,4,4,16,30,03,154,,40,60,241,39,41,73,157,37,50,32,101,,1*6E
$GLGSV,2,1,07,65,06,133,,76,32,145,,77,78,105,,78,33,338,,1*74
$GLGSV,2,2,07,81,27,252,,87,16,019,,88,48,320,,1*4B
$GAGSV,3,1,09,04,10,178,,06,12,202,25,09,09,224,26,10,66,246,38,7*7B
$GAGSV,3,2,09,11,39,228,,12,77,335,33,24,34,337,35,31,61,053,35,7*7A
$GAGSV,3,3,09,33,26,030,32,7*4C
$GBGSV,5,1,17,01,14,095,,02,71,157,29,03,49,110,,06,25,170,,1*79
$GBGSV,5,2,17,07,40,051,,08,55,108,,09,34,177,22,10,46,034,22,1*7A
$GBGSV,5,3,17,11,45,356,29,12,09,040,,13,56,131,,16,17,164,19,1*7A
$GBGSV,5,4,17,21,07,083,,23,34,320,,24,33,148,28,25,83,235,33,1*70
$GBGSV,5,5,17,28,16,256,,1*4C
$GNGLL,1257.45644,N,07738.50230,E,183013.00,A,D*73
µb
8             b ¾ÿçæ   Tö$GNRMC,183014.00,A,1257.45645,N,07738.50229,E,0.055,,141024,,,D,V*1C
$GNVTG,,T,,M,0.055,N,0.102,K,D*3B
$GNGGA,183014.00,1257.45645,N,07738.50229,E,2,12,0.69,903.6,M,-86.4,M,,0000*69
$GNGSA,A,3,14,11,20,13,06,17,22,19,41,,,,1.07,0.69,0.82,1*0A
$GNGSA,A,3,,,,,,,,,,,,,1.07,0.69,0.82,2*01
$GNGSA,A,3,12,06,24,10,09,31,33,,,,,,1.07,0.69,0.82,3*09
$GNGSA,A,3,25,24,11,09,10,16,02,,,,,,1.07,0.69,0.82,4*0B
$GPGSV,4,1,16,05,15,192,,06,53,016,37,11,70,259,39,12,14,326,,1*6C
$GPGSV,4,2,16,13,11,204,26,14,32,114,31,15,00,229,,17,18,047,29,1*6D
$GPGSV,4,3,16,19,31,022,35,20,42,171,35,22,49,089,35,24,34,285,,1*69
$GPGSV,4,4,16,30,03,154,,40,60,241,40,41,73,157,37,50,32,101,,1*60
$GLGSV,2,1,07,65,06,133,,76,32,145,,77,78,105,,78,33,338,,1*74
$GLGSV,2,2,07,81,27,252,,87,16,019,,88,48,320,,1*4B
$GAGSV,3,1,09,04,10,178,,06,12,202,26,09,09,224,27,10,66,246,38,7*79
$GAGSV,3,2,09,11,39,228,,12,77,335,33,24,34,337,35,31,61,053,36,7*79
$GAGSV,3,3,09,33,26,030,33,7*4D
$GBGSV,5,1,17,01,14,095,,02,71,157,28,03,49,110,,06,25,170,,1*78
$GBGSV,5,2,17,07,40,051,,08,55,108,,09,34,177,22,10,46,034,21,1*79
$GBGSV,5,3,17,11,45,356,29,12,09,040,,13,56,131,,16,17,164,20,1*70
$GBGSV,5,4,17,21,07,083,,23,34,320,,24,33,148,28,25,83,235,32,1*71
$GBGSV,5,5,17,28,16,256,,1*4C
$GNGLL,1257.45645,N,07738.50229,E,183014.00,A,D*7D
µb
8             b ¾ÿè æ   T÷$GNRMC,183015.00,A,1257.45645,N,07738.50228,E,0.032,,141024,,,D,V*1D
$GNVTG,,T,,M,0.032,N,0.059,K,D*35
$GNGGA,183015.00,1257.45645,N,07738.50228,E,2,12,0.69,903.6,M,-86.4,M,,0000*69
$GNGSA,A,3,14,11,20,13,06,17,22,19,41,,,,1.07,0.69,0.82,1*0A
$GNGSA,A,3,,,,,,,,,,,,,1.07,0.69,0.82,2*01
$GNGSA,A,3,12,06,24,10,09,31,33,,,,,,1.07,0.69,0.82,3*09
$GNGSA,A,3,25,24,11,09,10,16,02,,,,,,1.07,0.69,0.82,4*0B
$GPGSV,4,1,16,05,15,192,,06,53,016,37,11,70,259,39,12,14,326,,1*6C
$GPGSV,4,2,16,13,11,204,26,14,32,114,32,15,00,229,,17,18,047,30,1*66
$GPGSV,4,3,16,19,31,022,35,20,42,171,35,22,49,089,36,24,34,285,,1*6A
$GPGSV,4,4,16,30,03,154,,40,60,241,40,41,73,157,37,50,32,101,,1*60
$GLGSV,2,1,07,65,06,133,,76,32,145,,77,78,105,,78,33,338,,1*74
$GLGSV,2,2,07,81,27,252,,87,16,019,,88,48,320,,1*4B
$GAGSV,3,1,09,04,10,178,,06,12,202,25,09,09,224,27,10,66,246,38,7*7A
$GAGSV,3,2,09,11,39,228,,12,77,335,33,24,34,337,35,31,61,053,36,7*79
$GAGSV,3,3,09,33,26,030,32,7*4C
$GBGSV,5,1,17,01,14,095,,02,71,157,28,03,49,110,,06,25,170,,1*78
$GBGSV,5,2,17,07,40,051,,08,55,108,,09,34,177,22,10,46,034,23,1*7B
$GBGSV,5,3,17,11,45,356,29,12,09,040,,13,56,131,,16,17,164,21,1*71
$GBGSV,5,4,17,21,07,083,,23,34,320,,24,33,148,29,25,83,235,33,1*71
$GBGSV,5,5,17,28,16,256,,1*4C
$GNGLL,1257.45645,N,07738.50228,E,183015.00,A,D*7D
µb
8             b ¾ÿè ë   Z$GNRMC,183016.00,A,1257.45646,N,07738.50228,E,0.039,,141024,,,D,V*16
$GNVTG,,T,,M,0.039,N,0.072,K,D*37
$GNGGA,183016.00,1257.45646,N,07738.50228,E,2,12,0.69,903.6,M,-86.4,M,,0000*69
$GNGSA,A,3,14,11,20,13,06,17,22,19,41,,,,1.07,0.69,0.82,1*0A
$GNGSA,A,3,,,,,,,,,,,,,1.07,0.69,0.82,2*01
$GNGSA,A,3,12,06,24,10,09,31,33,,,,,,1.07,0.69,0.82,3*09
$GNGSA,A,3,25,24,11,09,10,16,02,,,,,,1.07,0.69,0.82,4*0B
$GPGSV,4,1,16,05,15,192,,06,53,016,37,11,70,259,38,12,14,326,,1*6D
$GPGSV,4,2,16,13,11,204,26,14,32,114,33,15,00,229,,17,18,047,29,1*6F
$GPGSV,4,3,16,19,31,022,34,20,42,171,35,22,49,089,36,24,34,285,,1*6B
$GPGSV,4,4,16,30,03,154,,40,60,241,40,41,73,157,37,50,32,101,,1*60
$GLGSV,2,1,07,65,06,133,,76,32,145,,77,78,105,,78,33,338,,1*74
$GLGSV,2,2,07,81,27,252,,87,16,019,,88,48,320,,1*4B
$GAGSV,3,1,09,04,10,178,,06,12,202,26,09,09,224,27,10,66,246,38,7*79
$GAGSV,3,2,09,11,39,228,,12,77,335,33,24,34,337,35,31,61,053,36,7*79
$GAGSV,3,3,09,33,26,030,31,7*4F
$GBGSV,5,1,17,01,14,095,,02,71,157,28,03,49,110,,06,25,170,,1*78
$GBGSV,5,2,17,07,40,051,,08,55,108,,09,34,177,22,10,46,034,23,1*7B
$GBGSV,5,3,17,11,45,356,29,12,09,040,,13,56,131,,16,17,164,21,1*71
$GBGSV,5,4,17,21,07,083,,23,34,320,,24,33,148,28,25,83,235,33,1*70
$GBGSV,5,5,17,28,16,256,,1*4C
$GNGLL,1257.45646,N,07738.50228,E,183016.00,A,D*7D
µb
8             b ¾ÿêè   Y$GNRMC,183017.00,A,1257.45647,N,07738.50228,E,0.024,,141024,,,D,V*1A
$GNVTG,,T,,M,0.024,N,0.044,K,D*3E
$GNGGA,183017.00,1257.45647,N,07738.50228,E,2,12,0.69,903.5,M,-86.4,M,,0000*6A
$GNGSA,A,3,14,11,20,13,06,17,22,19,41,,,,1.07,0.69,0.82,1*0A
$GNGSA,A,3,,,,,,,,,,,,,1.07,0.69,0.82,2*01
$GNGSA,A,3,12,06,24,10,09,31,33,,,,,,1.07,0.69,0.82,3*09
$GNGSA,A,3,25,24,11,09,10,16,02,,,,,,1.07,0.69,0.82,4*0B
$GPGSV,4,1,16,05,15,192,,06,53,016,37,11,70,259,39,12,14,326,,1*6C
$GPGSV,4,2,16,13,11,204,26,14,32,114,32,15,00,229,,17,18,047,29,1*6E
$GPGSV,4,3,16,19,31,022,34,20,42,171,35,22,49,089,36,24,34,285,,1*6B
$GPGSV,4,4,16,30,03,154,,40,60,241,40,41,73,157,37,50,32,101,,1*60
$GLGSV,2,1,07,65,06,133,,76,32,145,,77,78,105,,78,33,338,,1*74
$GLGSV,2,2,07,81,27,252,,87,16,019,,88,48,320,,1*4B
$GAGSV,3,1,09,04,10,178,,06,12,202,25,09,09,224,27,10,66,246,38,7*7A
$GAGSV,3,2,09,11,39,228,,12,77,335,33,24,34,337,35,31,61,053,36,7*79
$GAGSV,3,3,09,33,26,030,30,7*4E
$GBGSV,5,1,17,01,14,095,,02,71,157,28,03,49,110,,06,25,170,,1*78
$GBGSV,5,2,17,07,40,051,,08,55,108,,09,34,177,21,10,46,034,22,1*79
$GBGSV,5,3,17,11,45,356,29,12,09,040,,13,56,131,,16,17,164,21,1*71
$GBGSV,5,4,17,21,07,083,,23,34,320,,24,33,148,28,25,83,235,33,1*70
$GBGSV,5,5,17,28,16,256,,1*4C
$GNGLL,1257.45647,N,07738.50228,E,183017.00,A,D*7D
µb
8             b ¾ÿçé   X	$GNRMC,183018.00,A,1257.45648,N,07738.50228,E,0.021,,141024,,,D,V*1F
$GNVTG,,T,,M,0.021,N,0.039,K,D*31
$GNGGA,183018.00,1257.45648,N,07738.50228,E,2,12,0.69,903.5,M,-86.4,M,,0000*6A
$GNGSA,A,3,14,11,20,13,06,17,22,19,41,,,,1.07,0.69,0.82,1*0A
$GNGSA,A,3,,,,,,,,,,,,,1.07,0.69,0.82,2*01
$GNGSA,A,3,12,06,24,10,09,31,33,,,,,,1.07,0.69,0.82,3*09
$GNGSA,A,3,25,24,11,09,10,16,02,,,,,,1.07,0.69,0.82,4*0B
$GPGSV,4,1,16,05,15,192,,06,53,016,37,11,70,259,39,12,14,326,,1*6C
$GPGSV,4,2,16,13,11,204,27,14,32,114,32,15,00,229,,17,18,047,30,1*67
$GPGSV,4,3,16,19,31,022,34,20,42,171,35,22,49,089,36,24,34,285,,1*6B
$GPGSV,4,4,16,30,03,154,,40,60,241,40,41,73,157,37,50,32,101,,1*60
$GLGSV,2,1,07,65,06,133,,76,32,145,,77,78,105,,78,33,338,,1*74
$GLGSV,2,2,07,81,27,252,,87,16,019,,88,48,320,,1*4B
$GAGSV,3,1,09,04,10,178,,06,12,202,25,09,09,224,28,10,66,246,38,7*75
$GAGSV,3,2,09,11,39,228,,12,77,335,33,24,34,337,35,31,61,053,36,7*79
$GAGSV,3,3,09,33,26,030,31,7*4F
$GBGSV,5,1,17,01,14,095,,02,71,157,28,03,49,110,,06,25,170,,1*78
$GBGSV,5,2,17,07,40,051,,08,55,108,,09,34,177,21,10,46,034,21,1*7A
$GBGSV,5,3,17,11,45,356,28,12,09,040,,13,56,131,,16,17,164,20,1*71
$GBGSV,5,4,17,21,07,083,,23,34,320,,24,33,148,28,25,83,235,33,1*70
$GBGSV,5,5,17,28,16,256,,1*4C
$GNGLL,1257.45648,N,07738.50228,E,183018.00,A,D*7D
µb
8             b ¾ÿé é   X	$GNRMC,183019.00,A,1257.45648,N,07738.50228,E,0.021,,141024,,,D,V*1E
$GNVTG,,T,,M,0.021,N,0.038,K,D*30
$GNGGA,183019.00,1257.45648,N,07738.50228,E,2,12,0.69,903.6,M,-86.4,M,,0000*68
$GNGSA,A,3,14,11,20,13,06,17,22,19,41,,,,1.07,0.69,0.82,1*0A
$GNGSA,A,3,,,,,,,,,,,,,1.07,0.69,0.82,2*01
$GNGSA,A,3,12,06,24,10,09,31,33,,,,,,1.07,0.69,0.82,3*09
$GNGSA,A,3,25,24,11,09,10,16,02,,,,,,1.07,0.69,0.82,4*0B
$GPGSV,4,1,16,05,15,192,,06,53,016,37,11,70,259,39,12,14,326,,1*6C
$GPGSV,4,2,16,13,11,204,26,14,32,114,31,15,00,229,,17,18,047,31,1*64
$GPGSV,4,3,16,19,31,022,34,20,42,171,35,22,49,089,35,24,34,285,,1*68
$GPGSV,4,4,16,30,03,154,,40,60,241,40,41,73,157,37,50,32,101,,1*60
$GLGSV,2,1,07,65,06,133,,76,32,145,,77,78,105,,78,33,338,,1*74
$GLGSV,2,2,07,81,27,252,,87,16,019,,88,48,320,,1*4B
$GAGSV,3,1,09,04,10,178,,06,12,202,25,09,09,224,28,10,66,246,38,7*75
$GAGSV,3,2,09,11,39,228,,12,77,335,33,24,34,337,35,31,61,053,36,7*79
$GAGSV,3,3,09,33,26,030,31,7*4F
$GBGSV,5,1,17,01,14,095,,02,71,157,28,03,49,110,,06,25,170,,1*78
$GBGSV,5,2,17,07,40,051,,08,55,108,,09,34,177,22,10,46,034,21,1*79
$GBGSV,5,3,17,11,45,356,28,12,09,040,,13,56,131,,16,17,164,21,1*70
$GBGSV,5,4,17,21,07,083,,23,34,320,,24,33,148,28,25,83,235,33,1*70
$GBGSV,5,5,17,28,16,256,,1*4C
$GNGLL,1257.45648,N,07738.50228,E,183019.00,A,D*7C
µb
8             b ¾ÿê è   Z$GNRMC,183020.00,A,1257.45649,N,07738.50228,E,0.017,,141024,,,D,V*10
$GNVTG,,T,,M,0.017,N,0.031,K,D*3C
$GNGGA,183020.00,1257.45649,N,07738.50228,E,2,12,0.69,903.6,M,-86.4,M,,0000*63
$GNGSA,A,3,14,11,20,13,06,17,22,19,41,,,,1.07,0.69,0.82,1*0A
$GNGSA,A,3,,,,,,,,,,,,,1.07,0.69,0.82,2*01
$GNGSA,A,3,12,06,24,10,09,31,33,,,,,,1.07,0.69,0.82,3*09
$GNGSA,A,3,25,24,11,09,10,16,02,,,,,,1.07,0.69,0.82,4*0B
$GPGSV,4,1,16,05,15,192,,06,53,016,37,11,70,259,39,12,14,326,,1*6C
$GPGSV,4,2,16,13,11,204,26,14,32,114,30,15,00,229,,17,18,047,31,1*65
$GPGSV,4,3,16,19,31,022,35,20,42,171,35,22,49,089,35,24,34,285,,1*69
$GPGSV,4,4,16,30,03,154,,40,60,241,40,41,73,157,37,50,32,101,,1*60
$GLGSV,2,1,07,65,06,133,,76,32,145,,77,78,105,,78,33,338,,1*74
$GLGSV,2,2,07,81,27,252,,87,16,019,,88,48,320,,1*4B
$GAGSV,3,1,09,04,10,178,,06,12,202,25,09,09,224,28,10,66,246,38,7*75
$GAGSV,3,2,09,11,39,228,,12,77,335,33,24,34,337,35,31,61,053,36,7*79
$GAGSV,3,3,09,33,26,030,31,7*4F
$GBGSV,5,1,17,01,14,095,,02,71,157,28,03,49,110,,06,25,170,,1*78
$GBGSV,5,2,17,07,40,051,,08,55,108,,09,34,177,22,10,46,034,22,1*7A
$GBGSV,5,3,17,11,45,356,28,12,09,040,,13,56,131,,16,17,164,20,1*71
$GBGSV,5,4,17,21,07,083,,23,34,320,,24,33,148,28,25,83,235,33,1*70
$GBGSV,5,5,17,28,16,256,,1*4C
$GNGLL,1257.45649,N,07738.50228,E,183020.00,A,D*77
µb
8             b ¾ÿë ç   Y$GNRMC,183021.00,A,1257.45649,N,07738.50228,E,0.010,,141024,,,D,V*16
$GNVTG,,T,,M,0.010,N,0.019,K,D*31
$GNGGA,183021.00,1257.45649,N,07738.50228,E,2,12,0.69,903.6,M,-86.4,M,,0000*62
$GNGSA,A,3,14,11,20,13,06,17,22,19,41,,,,1.07,0.69,0.82,1*0A
$GNGSA,A,3,,,,,,,,,,,,,1.07,0.69,0.82,2*01
$GNGSA,A,3,12,06,24,10,09,31,33,,,,,,1.07,0.69,0.82,3*09
$GNGSA,A,3,25,24,11,09,10,16,02,,,,,,1.07,0.69,0.82,4*0B
$GPGSV,4,1,16,05,15,192,,06,53,016,37,11,70,259,39,12,14,326,,1*6C
$GPGSV,4,2,16,13,11,204,26,14,32,114,29,15,00,229,,17,18,047,31,1*6D
$GPGSV,4,3,16,19,31,022,35,20,42,171,35,22,49,089,35,24,34,285,,1*69
$GPGSV,4,4,16,30,03,154,,40,60,241,39,41,73,157,37,50,32,101,,1*6E
$GLGSV,2,1,07,65,06,133,,76,32,145,,77,78,105,,78,33,338,,1*74
$GLGSV,2,2,07,81,27,252,,87,16,019,,88,48,320,,1*4B
$GAGSV,3,1,09,04,10,178,,06,12,202,25,09,09,224,28,10,66,246,38,7*75
$GAGSV,3,2,09,11,39,228,,12,77,335,33,24,34,337,35,31,61,053,35,7*7A
$GAGSV,3,3,09,33,26,030,31,7*4F
$GBGSV,5,1,17,01,14,095,,02,71,157,28,03,49,110,,06,25,170,,1*78
$GBGSV,5,2,17,07,40,051,,08,55,108,,09,34,177,22,10,46,034,22,1*7A
$GBGSV,5,3,17,11,45,356,28,12,09,040,,13,56,131,,16,17,164,20,1*71
$GBGSV,5,4,17,21,07,083,,23,34,320,,24,33,148,28,25,83,235,33,1*70
$GBGSV,5,5,17,28,16,256,,1*4C
$GNGLL,1257.45649,N,07738.50228,E,183021.00,A,D*76
µb
8             b ¾ÿé ë   [$GNRMC,183022.00,A,1257.45649,N,07738.50229,E,0.083,,141024,,,D,V*1E
$GNVTG,,T,,M,0.083,N,0.154,K,D*33
$GNGGA,183022.00,1257.45649,N,07738.50229,E,2,12,0.69,903.6,M,-86.4,M,,0000*60
$GNGSA,A,3,14,11,20,13,06,17,22,19,41,,,,1.07,0.69,0.82,1*0A
$GNGSA,A,3,,,,,,,,,,,,,1.07,0.69,0.82,2*01
$GNGSA,A,3,12,06,24,10,09,31,33,,,,,,1.07,0.69,0.82,3*09
$GNGSA,A,3,25,24,11,09,10,16,02,,,,,,1.07,0.69,0.82,4*0B
$GPGSV,4,1,16,05,15,192,,06,53,016,37,11,70,259,37,12,14,326,,1*62
$GPGSV,4,2,16,13,11,204,25,14,32,114,29,15,00,229,,17,18,047,32,1*6D
$GPGSV,4,3,16,19,31,022,35,20,42,171,35,22,49,089,35,24,34,285,,1*69
$GPGSV,4,4,16,30,03,154,,40,60,241,38,41,73,157,37,50,32,101,,1*6F
$GLGSV,2,1,07,65,06,133,,76,32,145,,77,78,105,,78,33,338,,1*74
$GLGSV,2,2,07,81,27,252,,87,16,019,,88,48,320,,1*4B
$GAGSV,3,1,09,04,10,178,,06,12,202,25,09,09,224,28,10,66,246,36,7*7B
$GAGSV,3,2,09,11,39,228,,12,77,335,33,24,34,337,35,31,61,053,36,7*79
$GAGSV,3,3,09,33,26,030,31,7*4F
$GBGSV,5,1,17,01,14,095,,02,71,157,28,03,49,110,,06,25,170,,1*78
$GBGSV,5,2,17,07,40,051,,08,55,108,,09,34,177,22,10,46,034,21,1*79
$GBGSV,5,3,17,11,45,356,28,12,09,040,,13,56,131,,16,17,164,20,1*71
$GBGSV,5,4,17,21,07,083,,23,34,320,,24,33,148,28,25,83,235,33,1*70
$GBGSV,5,5,17,28,16,256,,1*4C
$GNGLL,1257.45649,N,07738.50229,E,183022.00,A,D*74
µb
8             b ¾ÿè ç   Uû$GNRMC,183023.00,A,1257.45649,N,07738.50230,E,0.014,,141024,,,D,V*19
$GNVTG,,T,,M,0.014,N,0.027,K,D*38
$GNGGA,183023.00,1257.45649,N,07738.50230,E,2,12,0.69,903.6,M,-86.4,M,,0000*69
$GNGSA,A,3,14,11,20,13,06,17,22,19,41,,,,1.07,0.69,0.82,1*0A
$GNGSA,A,3,,,,,,,,,,,,,1.07,0.69,0.82,2*01
$GNGSA,A,3,12,06,24,10,09,31,33,,,,,,1.07,0.69,0.82,3*09
$GNGSA,A,3,25,24,11,09,10,16,02,,,,,,1.07,0.69,0.82,4*0B
$GPGSV,4,1,16,05,15,192,,06,53,016,38,11,70,259,39,12,14,326,,1*63
$GPGSV,4,2,16,13,11,204,25,14,32,114,30,15,00,229,,17,18,047,32,1*65
$GPGSV,4,3,16,19,31,022,35,20,42,171,35,22,49,089,34,24,34,285,,1*68
$GPGSV,4,4,16,30,03,154,,40,60,241,40,41,73,157,37,50,32,101,,1*60
$GLGSV,2,1,07,65,06,133,,76,32,145,,77,78,105,,78,33,338,,1*74
$GLGSV,2,2,07,81,27,252,,87,16,019,,88,48,320,,1*4B
$GAGSV,3,1,09,04,10,178,,06,12,202,25,09,09,224,28,10,66,246,37,7*7A
$GAGSV,3,2,09,11,39,228,,12,77,335,33,24,34,337,35,31,61,053,36,7*79
$GAGSV,3,3,09,33,26,030,31,7*4F
$GBGSV,5,1,17,01,14,095,,02,71,157,29,03,49,110,,06,25,170,,1*79
$GBGSV,5,2,17,07,40,051,,08,55,108,,09,34,177,21,10,46,034,19,1*71
$GBGSV,5,3,17,11,45,356,29,12,09,040,,13,56,131,,16,17,164,21,1*71
$GBGSV,5,4,17,21,07,083,,23,34,320,,24,33,148,29,25,83,235,33,1*71
$GBGSV,5,5,17,28,16,256,,1*4C
$GNGLL,1257.45649,N,07738.50230,E,183023.00,A,D*7D
µb
8             b ¾ÿéê   [$GNRMC,183024.00,A,1257.45649,N,07738.50229,E,0.022,,141024,,,D,V*13
$GNVTG,,T,,M,0.022,N,0.042,K,D*3E
$GNGGA,183024.00,1257.45649,N,07738.50229,E,2,12,0.69,903.6,M,-86.4,M,,0000*66
$GNGSA,A,3,14,11,20,13,06,17,22,19,41,,,,1.07,0.69,0.82,1*0A
$GNGSA,A,3,,,,,,,,,,,,,1.07,0.69,0.82,2*01
$GNGSA,A,3,12,06,24,10,09,31,33,,,,,,1.07,0.69,0.82,3*09
$GNGSA,A,3,25,24,11,09,10,16,02,,,,,,1.07,0.69,0.82,4*0B
$GPGSV,4,1,16,05,15,192,,06,53,016,38,11,70,259,39,12,14,326,,1*63
$GPGSV,4,2,16,13,11,204,26,14,32,114,30,15,00,229,,17,18,047,32,1*66
$GPGSV,4,3,16,19,31,022,35,20,42,171,35,22,49,089,35,24,34,285,,1*69
$GPGSV,4,4,16,30,03,154,,40,60,241,40,41,73,157,37,50,32,101,,1*60
$GLGSV,2,1,07,65,06,133,,76,32,145,,77,78,105,,78,33,338,,1*74
$GLGSV,2,2,07,81,27,252,,87,16,019,,88,48,320,,1*4B
$GAGSV,3,1,09,04,10,177,,06,12,202,25,09,09,224,28,10,66,246,37,7*75
$GAGSV,3,2,09,11,39,228,,12,77,335,33,24,34,337,35,31,61,053,36,7*79
$GAGSV,3,3,09,33,26,030,31,7*4F
$GBGSV,5,1,17,01,14,095,,02,71,157,29,03,49,110,,06,25,170,,1*79
$GBGSV,5,2,17,07,40,051,,08,55,108,,09,34,177,21,10,46,034,20,1*7B
$GBGSV,5,3,17,11,45,356,29,12,09,040,,13,56,131,,16,17,164,21,1*71
$GBGSV,5,4,17,21,07,083,,23,34,320,,24,33,148,29,25,83,235,33,1*71
$GBGSV,5,5,17,28,16,256,,1*4C
$GNGLL,1257.45649,N,07738.50229,E,183024.00,A,D*72
µb
8             b ¾ÿé ë   [$GNRMC,183025.00,A,1257.45650,N,07738.50229,E,0.023,,141024,,,D,V*1B
$GNVTG,,T,,M,0.023,N,0.043,K,D*3E
$GNGGA,183025.00,1257.45650,N,07738.50229,E,2,12,0.69,903.6,M,-86.4,M,,0000*6F
$GNGSA,A,3,14,11,20,13,06,17,22,19,41,,,,1.07,0.69,0.82,1*0A
$GNGSA,A,3,,,,,,,,,,,,,1.07,0.69,0.82,2*01
$GNGSA,A,3,12,06,24,10,09,31,33,,,,,,1.07,0.69,0.82,3*09
$GNGSA,A,3,25,24,11,09,10,16,02,,,,,,1.07,0.69,0.82,4*0B
$GPGSV,4,1,16,05,15,192,,06,53,016,38,11,70,259,39,12,14,326,,1*63
$GPGSV,4,2,16,13,11,204,26,14,32,114,30,15,00,229,,17,18,047,33,1*67
$GPGSV,4,3,16,19,31,022,34,20,42,171,35,22,49,089,35,24,34,285,,1*68
$GPGSV,4,4,16,30,03,154,,40,60,241,40,41,73,157,37,50,32,101,,1*60
$GLGSV,2,1,07,65,06,133,,76,32,145,,77,78,105,,78,33,338,,1*74
$GLGSV,2,2,07,81,27,252,,87,16,019,,88,48,320,,1*4B
$GAGSV,3,1,09,04,10,177,,06,12,202,25,09,09,224,28,10,66,246,38,7*7A
$GAGSV,3,2,09,11,39,228,,12,77,335,33,24,34,337,35,31,61,053,35,7*7A
$GAGSV,3,3,09,33,26,030,32,7*4C
$GBGSV,5,1,17,01,14,095,,02,71,157,28,03,49,110,,06,25,170,,1*78
$GBGSV,5,2,17,07,40,051,,08,55,108,,09,34,177,22,10,46,034,22,1*7A
$GBGSV,5,3,17,11,45,356,29,12,09,040,,13,56,131,,16,17,164,21,1*71
$GBGSV,5,4,17,21,07,083,,23,34,320,,24,33,148,29,25,83,235,33,1*71
$GBGSV,5,5,17,28,16,256,,1*4C
$GNGLL,1257.45650,N,07738.50229,E,183025.00,A,D*7B
µb
8             b ¾ÿ çè   U÷$GNRMC,183026.00,A,1257.45650,N,07738.50229,E,0.018,,141024,,,D,V*10
$GNVTG,,T,,M,0.018,N,0.034,K,D*36
$GNGGA,183026.00,1257.45650,N,07738.50229,E,2,12,0.69,903.7,M,-86.4,M,,0000*6D
$GNGSA,A,3,14,11,20,13,06,17,22,19,41,,,,1.07,0.69,0.82,1*0A
$GNGSA,A,3,,,,,,,,,,,,,1.07,0.69,0.82,2*01
$GNGSA,A,3,12,06,24,10,09,31,33,,,,,,1.07,0.69,0.82,3*09
$GNGSA,A,3,25,24,11,09,10,16,02,,,,,,1.07,0.69,0.82,4*0B
$GPGSV,4,1,16,05,15,192,,06,53,016,38,11,70,259,39,12,14,326,,1*63
$GPGSV,4,2,16,13,11,204,26,14,32,114,30,15,00,229,,17,18,047,32,1*66
$GPGSV,4,3,16,19,31,022,34,20,42,171,35,22,49,089,35,24,34,285,,1*68
$GPGSV,4,4,16,30,03,154,,40,60,241,40,41,73,157,36,50,32,101,,1*61
$GLGSV,2,1,07,65,06,133,,76,32,145,,77,78,105,,78,33,338,,1*74
$GLGSV,2,2,07,81,27,252,,87,16,019,,88,48,320,,1*4B
$GAGSV,3,1,09,04,10,177,,06,12,201,25,09,09,224,28,10,66,246,38,7*79
$GAGSV,3,2,09,11,39,228,,12,77,335,33,24,34,337,35,31,61,053,35,7*7A
$GAGSV,3,3,09,33,26,030,32,7*4C
$GBGSV,5,1,17,01,14,095,,02,71,157,28,03,49,110,,06,25,170,,1*78
$GBGSV,5,2,17,07,40,051,,08,55,108,,09,34,177,22,10,46,034,22,1*7A
$GBGSV,5,3,17,11,45,356,29,12,09,040,,13,56,131,,16,17,164,21,1*71
$GBGSV,5,4,17,21,07,083,,23,34,320,,24,33,148,29,25,83,235,33,1*71
$GBGSV,5,5,17,28,16,256,,1*4C
$GNGLL,1257.45650,N,07738.50229,E,183026.00,A,D*78
µb
8             b ¾ÿè è   Vÿ$GNRMC,183027.00,A,1257.45650,N,07738.50230,E,0.031,,141024,,,D,V*12
$GNVTG,,T,,M,0.031,N,0.057,K,D*38
$GNGGA,183027.00,1257.45650,N,07738.50230,E,2,12,0.69,903.7,M,-86.4,M,,0000*64
$GNGSA,A,3,14,11,20,13,06,17,22,19,41,,,,1.07,0.69,0.82,1*0A
$GNGSA,A,3,,,,,,,,,,,,,1.07,0.69,0.82,2*01
$GNGSA,A,3,12,06,24,10,09,31,33,,,,,,1.07,0.69,0.82,3*09
$GNGSA,A,3,25,24,11,09,10,16,02,,,,,,1.07,0.69,0.82,4*0B
$GPGSV,4,1,16,05,15,192,,06,53,016,37,11,70,259,39,12,14,326,,1*6C
$GPGSV,4,2,16,13,11,204,26,14,32,114,30,15,00,229,,17,18,047,32,1*66
$GPGSV,4,3,16,19,31,022,34,20,42,171,35,22,49,089,35,24,34,285,,1*68
$GPGSV,4,4,16,30,03,154,,40,60,241,40,41,73,157,37,50,32,101,,1*60
$GLGSV,2,1,07,65,06,133,,76,32,145,,77,78,105,,78,33,338,,1*74
$GLGSV,2,2,07,81,27,252,,87,16,019,,88,48,320,,1*4B
$GAGSV,3,1,09,04,10,177,,06,12,201,25,09,09,224,28,10,66,246,38,7*79
$GAGSV,3,2,09,11,39,228,,12,77,335,33,24,34,337,35,31,61,053,35,7*7A
$GAGSV,3,3,09,33,26,030,31,7*4F
$GBGSV,5,1,17,01,14,095,,02,71,157,28,03,49,110,,06,25,170,,1*78
$GBGSV,5,2,17,07,40,051,,08,55,108,,09,34,177,21,10,46,034,22,1*79
$GBGSV,5,3,17,11,45,356,28,12,09,040,,13,56,131,,16,17,164,21,1*70
$GBGSV,5,4,17,21,07,083,,23,34,320,,24,33,148,28,25,83,235,33,1*70
$GBGSV,5,5,17,28,16,256,,1*4C
$GNGLL,1257.45650,N,07738.50230,E,183027.00,A,D*71
µb
8             b ¾ÿé ê   Z$GNRMC,183028.00,A,1257.45649,N,07738.50230,E,0.038,,141024,,,D,V*1C
$GNVTG,,T,,M,0.038,N,0.070,K,D*34
$GNGGA,183028.00,1257.45649,N,07738.50230,E,2,12,0.69,903.7,M,-86.4,M,,0000*63
$GNGSA,A,3,14,11,20,13,06,17,22,19,41,,,,1.07,0.69,0.82,1*0A
$GNGSA,A,3,,,,,,,,,,,,,1.07,0.69,0.82,2*01
$GNGSA,A,3,12,06,24,10,09,31,33,,,,,,1.07,0.69,0.82,3*09
$GNGSA,A,3,25,24,11,09,10,16,02,,,,,,1.07,0.69,0.82,4*0B
$GPGSV,4,1,16,05,15,192,,06,53,016,37,11,70,259,38,12,14,326,,1*6D
$GPGSV,4,2,16,13,11,204,27,14,32,114,30,15,00,229,,17,18,047,32,1*67
$GPGSV,4,3,16,19,31,022,34,20,42,171,35,22,49,089,35,24,34,285,,1*68
$GPGSV,4,4,16,30,03,154,,40,60,241,40,41,73,157,37,50,32,101,,1*60
$GLGSV,2,1,07,65,06,133,,76,32,145,,77,78,105,,78,33,338,,1*74
$GLGSV,2,2,07,81,27,252,,87,16,019,,88,48,320,,1*4B
$GAGSV,3,1,09,04,10,177,,06,12,201,25,09,09,224,28,10,66,246,38,7*79
$GAGSV,3,2,09,11,39,228,,12,77,335,33,24,34,337,35,31,61,053,36,7*79
$GAGSV,3,3,09,33,26,030,31,7*4F
$GBGSV,5,1,17,01,14,095,,02,71,157,28,03,49,110,,06,25,170,,1*78
$GBGSV,5,2,17,07,40,051,,08,55,108,,09,34,177,21,10,46,034,23,1*78
$GBGSV,5,3,17,11,45,356,29,12,09,040,,13,56,131,,16,17,164,21,1*71
$GBGSV,5,4,17,21,07,083,,23,34,320,,24,33,148,29,25,83,235,33,1*71
$GBGSV,5,5,17,28,16,256,,1*4C
$GNGLL,1257.45649,N,07738.50230,E,183028.00,A,D*76
µb
8             b ¾ÿçç   V$GNRMC,183029.00,A,1257.45648,N,07738.50230,E,0.056,,141024,,,D,V*14
$GNVTG,,T,,M,0.056,N,0.104,K,D*3E
$GNGGA,183029.00,1257.45648,N,07738.50230,E,2,12,0.69,903.6,M,-86.4,M,,0000*62
$GNGSA,A,3,14,11,20,13,06,17,22,19,41,,,,1.07,0.69,0.82,1*0A
$GNGSA,A,3,,,,,,,,,,,,,1.07,0.69,0.82,2*01
$GNGSA,A,3,12,06,24,10,09,31,33,,,,,,1.07,0.69,0.82,3*09
$GNGSA,A,3,25,24,11,09,10,16,02,,,,,,1.07,0.69,0.82,4*0B
$GPGSV,4,1,16,05,15,192,,06,53,016,38,11,70,259,38,12,14,326,,1*62
$GPGSV,4,2,16,13,11,204,27,14,32,114,30,15,00,229,,17,18,047,32,1*67
$GPGSV,4,3,16,19,31,022,34,20,42,171,35,22,49,089,36,24,34,285,,1*6B
$GPGSV,4,4,16,30,03,154,,40,60,241,40,41,73,157,37,50,32,101,,1*60
$GLGSV,2,1,07,65,06,133,,76,32,145,,77,78,105,,78,33,338,,1*74
$GLGSV,2,2,07,81,27,252,,87,16,019,,88,48,320,,1*4B
$GAGSV,3,1,09,04,10,177,,06,12,201,25,09,09,224,28,10,66,246,38,7*79
$GAGSV,3,2,09,11,39,228,,12,77,335,33,24,34,337,35,31,61,053,36,7*79
$GAGSV,3,3,09,33,26,030,32,7*4C
$GBGSV,5,1,17,01,14,095,,02,71,157,28,03,49,110,,06,25,170,,1*78
$GBGSV,5,2,17,07,40,051,,08,55,108,,09,34,177,21,10,46,034,22,1*79
$GBGSV,5,3,17,11,45,356,29,12,09,040,,13,56,131,,16,17,164,21,1*71
$GBGSV,5,4,17,21,07,083,,23,34,320,,24,33,148,28,25,83,235,32,1*71
$GBGSV,5,5,17,28,16,256,,1*4C
$GNGLL,1257.45648,N,07738.50230,E,183029.00,A,D*76
µb
8             b ¾ÿç æ   Tø$GNRMC,183030.00,A,1257.45647,N,07738.50230,E,0.044,,141024,,,D,V*10
$GNVTG,,T,,M,0.044,N,0.081,K,D*31
$GNGGA,183030.00,1257.45647,N,07738.50230,E,2,12,0.69,903.7,M,-86.4,M,,0000*64
$GNGSA,A,3,14,11,20,13,06,17,22,19,41,,,,1.07,0.69,0.82,1*0A
$GNGSA,A,3,,,,,,,,,,,,,1.07,0.69,0.82,2*01
$GNGSA,A,3,12,06,24,10,09,31,33,,,,,,1.07,0.69,0.82,3*09
$GNGSA,A,3,25,24,11,09,10,16,02,,,,,,1.07,0.69,0.82,4*0B
$GPGSV,4,1,16,05,15,192,,06,53,016,38,11,70,259,38,12,14,326,,1*62
$GPGSV,4,2,16,13,11,204,26,14,32,114,31,15,00,229,,17,18,047,31,1*64
$GPGSV,4,3,16,19,31,022,33,20,42,171,35,22,49,089,35,24,34,285,,1*6F
$GPGSV,4,4,16,30,03,154,,40,60,241,40,41,73,157,37,50,32,101,,1*60
$GLGSV,2,1,07,65,06,133,,76,32,145,,77,78,105,,78,33,338,,1*74
$GLGSV,2,2,07,81,27,252,,87,16,019,,88,48,320,,1*4B
$GAGSV,3,1,09,04,10,177,,06,12,201,25,09,09,224,28,10,67,248,38,7*76
$GAGSV,3,2,09,11,39,228,,12,77,335,33,24,34,337,35,31,61,053,33,7*7C
$GAGSV,3,3,09,33,26,030,32,7*4C
$GBGSV,5,1,17,01,14,095,,02,71,157,28,03,49,110,,06,25,170,,1*78
$GBGSV,5,2,17,07,40,051,,08,55,108,,09,34,177,21,10,46,034,23,1*78
$GBGSV,5,3,17,11,45,356,29,12,09,040,,13,56,131,,16,17,164,21,1*71
$GBGSV,5,4,17,21,07,083,,23,34,320,,24,33,148,28,25,83,235,33,1*70
$GBGSV,5,5,17,28,16,256,,1*4C
$GNGLL,1257.45647,N,07738.50230,E,183030.00,A,D*71
µb
8             b ¾ÿé é   Z$GNRMC,183031.00,A,1257.45646,N,07738.50230,E,0.037,,141024,,,D,V*14
$GNVTG,,T,,M,0.037,N,0.068,K,D*32
$GNGGA,183031.00,1257.45646,N,07738.50230,E,2,12,0.69,903.6,M,-86.4,M,,0000*65
$GNGSA,A,3,14,11,20,13,06,17,22,19,41,,,,1.07,0.69,0.82,1*0A
$GNGSA,A,3,,,,,,,,,,,,,1.07,0.69,0.82,2*01
$GNGSA,A,3,12,06,24,10,09,31,33,,,,,,1.07,0.69,0.82,3*09
$GNGSA,A,3,25,24,11,09,10,16,02,,,,,,1.07,0.69,0.82,4*0B
$GPGSV,4,1,16,05,15,192,,06,53,016,37,11,70,259,37,12,14,326,,1*62
$GPGSV,4,2,16,13,11,204,26,14,32,114,31,15,00,229,,17,18,047,31,1*64
$GPGSV,4,3,16,19,31,022,33,20,42,171,35,22,49,089,32,24,34,285,,1*68
$GPGSV,4,4,16,30,03,154,,40,60,241,38,41,73,157,37,50,32,101,,1*6F
$GLGSV,2,1,07,65,06,133,,76,32,145,,77,78,105,,78,33,338,,1*74
$GLGSV,2,2,07,81,27,252,,87,16,019,,88,48,320,,1*4B
$GAGSV,3,1,09,04,10,177,,06,12,201,25,09,09,224,28,10,67,248,38,7*76
$GAGSV,3,2,09,11,39,228,,12,77,335,33,24,34,337,35,31,61,053,35,7*7A
$GAGSV,3,3,09,33,26,030,32,7*4C
$GBGSV,5,1,17,01,14,095,,02,71,157,29,03,49,110,,06,25,170,,1*79
$GBGSV,5,2,17,07,40,051,,08,55,108,,09,34,177,22,10,46,034,22,1*7A
$GBGSV,5,3,17,11,45,356,29,12,09,040,,13,56,131,,16,17,164,21,1*71
$GBGSV,5,4,17,21,07,083,,23,34,320,,24,33,148,28,25,83,235,33,1*70
$GBGSV,5,5,17,28,16,256,,1*4C
$GNGLL,1257.45646,N,07738.50230,E,183031.00,A,D*71
µb
8             b ¾ÿç è   Uù$GNRMC,183032.00,A,1257.45646,N,07738.50229,E,0.020,,141024,,,D,V*19
$GNVTG,,T,,M,0.020,N,0.038,K,D*31
$GNGGA,183032.00,1257.45646,N,07738.50229,E,2,12,0.69,903.7,M,-86.4,M,,0000*6F
$GNGSA,A,3,14,11,20,13,06,17,22,19,41,,,,1.07,0.69,0.82,1*0A
$GNGSA,A,3,,,,,,,,,,,,,1.07,0.69,0.82,2*01
$GNGSA,A,3,12,06,24,10,09,31,33,,,,,,1.07,0.69,0.82,3*09
$GNGSA,A,3,25,24,11,09,10,16,02,,,,,,1.07,0.69,0.82,4*0B
$GPGSV,4,1,16,05,15,192,,06,53,016,38,11,70,259,39,12,14,326,,1*63
$GPGSV,4,2,16,13,11,204,26,14,32,114,31,15,00,229,,17,18,047,31,1*64
$GPGSV,4,3,16,19,31,022,34,20,42,171,35,22,49,089,34,24,34,285,,1*69
$GPGSV,4,4,16,30,03,154,,40,60,241,40,41,73,157,37,50,32,101,,1*60
$GLGSV,2,1,07,65,06,133,,76,32,145,,77,78,105,,78,33,338,,1*74
$GLGSV,2,2,07,81,27,252,,87,16,019,,88,48,320,,1*4B
$GAGSV,3,1,09,04,10,177,,06,12,201,26,09,09,224,28,10,67,248,38,7*75
$GAGSV,3,2,09,11,39,228,,12,76,337,33,24,34,337,35,31,61,053,35,7*79
$GAGSV,3,3,09,33,26,030,32,7*4C
$GBGSV,5,1,17,01,14,095,,02,71,157,28,03,49,110,28,06,25,170,,1*72
$GBGSV,5,2,17,07,40,051,,08,55,108,,09,34,177,22,10,46,034,21,1*79
$GBGSV,5,3,17,11,45,356,29,12,09,040,,13,56,131,,16,17,164,21,1*71
$GBGSV,5,4,17,21,07,083,,23,34,320,,24,33,148,28,25,83,235,33,1*70
$GBGSV,5,5,17,28,16,256,,1*4C
$GNGLL,1257.45646,N,07738.50229,E,183032.00,A,D*7A
µb
8             b ¾ÿèé   Y$GNRMC,183033.00,A,1257.45646,N,07738.50228,E,0.056,,141024,,,D,V*18
$GNVTG,,T,,M,0.056,N,0.104,K,D*3E
$GNGGA,183033.00,1257.45646,N,07738.50228,E,2,12,0.69,903.6,M,-86.4,M,,0000*6E
$GNGSA,A,3,14,11,20,13,06,17,22,19,41,,,,1.07,0.69,0.82,1*0A
$GNGSA,A,3,,,,,,,,,,,,,1.07,0.69,0.82,2*01
$GNGSA,A,3,12,06,24,10,09,31,33,,,,,,1.07,0.69,0.82,3*09
$GNGSA,A,3,25,24,11,09,10,16,02,,,,,,1.07,0.69,0.82,4*0B
$GPGSV,4,1,16,05,15,192,,06,53,016,38,11,70,259,39,12,14,326,,1*63
$GPGSV,4,2,16,13,11,204,26,14,32,114,31,15,00,229,,17,18,047,31,1*64
$GPGSV,4,3,16,19,31,022,35,20,42,171,35,22,49,089,36,24,34,285,,1*6A
$GPGSV,4,4,16,30,03,154,,40,60,241,40,41,73,157,37,50,32,101,,1*60
$GLGSV,2,1,07,65,06,133,,76,32,145,,77,78,105,,78,33,338,,1*74
$GLGSV,2,2,07,81,27,252,,87,16,019,,88,48,320,,1*4B
$GAGSV,3,1,09,04,10,177,,06,12,201,25,09,09,224,28,10,67,248,38,7*76
$GAGSV,3,2,09,11,39,228,,12,76,337,33,24,34,337,35,31,61,053,36,7*7A
$GAGSV,3,3,09,33,26,030,32,7*4C
$GBGSV,5,1,17,01,14,095,,02,71,157,28,03,49,110,27,06,25,170,,1*7D
$GBGSV,5,2,17,07,40,051,,08,55,108,,09,34,177,22,10,46,034,21,1*79
$GBGSV,5,3,17,11,45,356,29,12,09,040,,13,56,131,,16,17,164,21,1*71
$GBGSV,5,4,17,21,07,083,,23,34,320,,24,33,148,28,25,83,235,33,1*70
$GBGSV,5,5,17,28,16,256,,1*4C
$GNGLL,1257.45646,N,07738.50228,E,183033.00,A,D*7A
µb
8             b ¾ÿè ê   X $GNRMC,183034.00,A,1257.45648,N,07738.50228,E,0.040,,141024,,,D,V*16
$GNVTG,,T,,M,0.040,N,0.074,K,D*3F
$GNGGA,183034.00,1257.45648,N,07738.50228,E,2,12,0.69,903.6,M,-86.4,M,,0000*67
$GNGSA,A,3,14,11,20,13,06,17,22,19,41,,,,1.07,0.69,0.82,1*0A
$GNGSA,A,3,,,,,,,,,,,,,1.07,0.69,0.82,2*01
$GNGSA,A,3,12,06,24,10,09,31,33,,,,,,1.07,0.69,0.82,3*09
$GNGSA,A,3,25,24,11,09,10,16,02,,,,,,1.07,0.69,0.82,4*0B
$GPGSV,4,1,16,05,15,192,,06,53,016,38,11,70,259,39,12,14,326,,1*63
$GPGSV,4,2,16,13,11,204,26,14,32,114,31,15,00,229,,17,18,047,30,1*65
$GPGSV,4,3,16,19,31,022,35,20,42,171,35,22,49,089,35,24,34,285,,1*69
$GPGSV,4,4,16,30,03,154,,40,60,241,40,41,73,157,37,50,32,101,,1*60
$GLGSV,2,1,07,65,06,133,,76,32,145,,77,78,105,,78,33,338,,1*74
$GLGSV,2,2,07,81,27,252,,87,16,019,,88,48,320,,1*4B
$GAGSV,3,1,09,04,10,177,,06,12,201,26,09,09,224,27,10,67,248,38,7*7A
$GAGSV,3,2,09,11,39,228,,12,76,337,33,24,34,337,35,31,61,053,35,7*79
$GAGSV,3,3,09,33,26,030,31,7*4F
$GBGSV,5,1,17,01,14,095,,02,71,157,28,03,49,110,,06,25,170,,1*78
$GBGSV,5,2,17,07,40,051,,08,55,108,,09,34,177,21,10,46,034,22,1*79
$GBGSV,5,3,17,11,45,356,29,12,09,040,,13,56,131,,16,17,164,21,1*71
$GBGSV,5,4,17,21,07,083,,23,34,320,,24,33,148,28,25,83,235,33,1*70
$GBGSV,5,5,17,28,16,256,,1*4C
$GNGLL,1257.45648,N,07738.50228,E,183034.00,A,D*73
µb
8             b ¾ÿè è   W$GNRMC,183035.00,A,1257.45648,N,07738.50229,E,0.035,,141024,,,D,V*14
$GNVTG,,T,,M,0.035,N,0.064,K,D*3C
$GNGGA,183035.00,1257.45648,N,07738.50229,E,2,12,0.69,903.6,M,-86.4,M,,0000*67
$GNGSA,A,3,14,11,20,13,06,17,22,19,41,,,,1.07,0.69,0.82,1*0A
$GNGSA,A,3,,,,,,,,,,,,,1.07,0.69,0.82,2*01
$GNGSA,A,3,12,06,24,10,09,31,33,,,,,,1.07,0.69,0.82,3*09
$GNGSA,A,3,25,24,11,09,10,16,02,,,,,,1.07,0.69,0.82,4*0B
$GPGSV,4,1,16,05,15,192,,06,53,016,38,11,70,259,39,12,14,326,,1*63
$GPGSV,4,2,16,13,11,204,26,14,32,114,31,15,00,229,,17,18,047,30,1*65
$GPGSV,4,3,16,19,31,022,36,20,42,171,35,22,49,089,36,24,34,285,,1*69
$GPGSV,4,4,16,30,03,154,,40,60,241,40,41,73,157,37,50,32,101,,1*60
$GLGSV,2,1,07,65,06,133,,76,32,145,,77,78,105,,78,33,338,,1*74
$GLGSV,2,2,07,81,27,252,,87,16,019,,88,48,320,,1*4B
$GAGSV,3,1,09,04,10,177,,06,12,201,26,09,09,224,27,10,67,248,38,7*7A
$GAGSV,3,2,09,11,39,228,,12,76,337,33,24,34,337,35,31,61,053,35,7*79
$GAGSV,3,3,09,33,26,030,30,7*4E
$GBGSV,5,1,17,01,14,095,,02,71,157,28,03,49,110,,06,25,170,,1*78
$GBGSV,5,2,17,07,40,051,,08,55,108,,09,34,177,22,10,46,034,23,1*7B
$GBGSV,5,3,17,11,45,356,29,12,09,040,,13,56,131,,16,17,164,21,1*71
$GBGSV,5,4,17,21,07,083,,23,34,320,,24,33,148,29,25,83,235,33,1*71
$GBGSV,5,5,17,28,16,256,,1*4C
$GNGLL,1257.45648,N,07738.50229,E,183035.00,A,D*73
µb
8             b ¾ÿèè   X
$GNRMC,183036.00,A,1257.45648,N,07738.50229,E,0.007,,141024,,,D,V*16
$GNVTG,,T,,M,0.007,N,0.012,K,D*3C
$GNGGA,183036.00,1257.45648,N,07738.50229,E,2,12,0.69,903.6,M,-86.4,M,,0000*64
$GNGSA,A,3,14,11,20,13,06,17,22,19,41,,,,1.07,0.69,0.82,1*0A
$GNGSA,A,3,,,,,,,,,,,,,1.07,0.69,0.82,2*01
$GNGSA,A,3,12,06,24,10,09,31,33,,,,,,1.07,0.69,0.82,3*09
$GNGSA,A,3,25,24,11,09,10,16,02,,,,,,1.07,0.69,0.82,4*0B
$GPGSV,4,1,16,05,15,192,,06,53,016,37,11,70,259,39,12,14,326,,1*6C
$GPGSV,4,2,16,13,11,204,26,14,32,114,30,15,00,229,,17,18,047,30,1*64
$GPGSV,4,3,16,19,31,022,35,20,42,171,35,22,49,089,35,24,34,285,,1*69
$GPGSV,4,4,16,30,03,154,,40,60,241,40,41,73,157,37,50,32,101,,1*60
$GLGSV,2,1,07,65,06,133,,76,32,145,,77,78,105,,78,33,338,,1*74
$GLGSV,2,2,07,81,27,252,,87,16,019,,88,48,320,,1*4B
$GAGSV,3,1,09,04,10,177,,06,12,201,26,09,09,224,27,10,67,248,38,7*7A
$GAGSV,3,2,09,11,39,228,,12,76,337,33,24,34,337,35,31,61,053,35,7*79
$GAGSV,3,3,09,33,26,030,31,7*4F
$GBGSV,5,1,17,01,14,095,,02,71,157,28,03,49,110,,06,25,170,,1*78
$GBGSV,5,2,17,07,40,051,,08,55,108,,09,34,177,22,10,46,034,22,1*7A
$GBGSV,5,3,17,11,45,356,29,12,09,040,,13,56,131,,16,17,164,21,1*71
$GBGSV,5,4,17,21,07,083,,23,34,320,,24,33,148,29,25,83,235,33,1*71
$GBGSV,5,5,17,28,16,256,,1*4C
$GNGLL,1257.45648,N,07738.50229,E,183036.00,A,D*70
µb
8             b ¾ÿê ê   [$GNRMC,183037.00,A,1257.45650,N,07738.50228,E,0.105,,141024,,,D,V*1C
$GNVTG,,T,,M,0.105,N,0.195,K,D*31
$GNGGA,183037.00,1257.45650,N,07738.50228,E,2,12,0.69,903.6,M,-86.4,M,,0000*6D
$GNGSA,A,3,14,11,20,13,06,17,22,19,41,,,,1.07,0.69,0.82,1*0A
$GNGSA,A,3,,,,,,,,,,,,,1.07,0.69,0.82,2*01
$GNGSA,A,3,12,06,24,10,09,31,33,,,,,,1.07,0.69,0.82,3*09
$GNGSA,A,3,25,24,11,09,10,16,02,,,,,,1.07,0.69,0.82,4*0B
$GPGSV,4,1,16,05,15,192,,06,53,016,36,11,70,259,38,12,14,326,,1*6C
$GPGSV,4,2,16,13,11,204,25,14,32,114,30,15,00,229,,17,18,047,30,1*67
$GPGSV,4,3,16,19,31,022,35,20,42,171,35,22,49,089,35,24,34,285,,1*69
$GPGSV,4,4,16,30,03,154,,40,60,241,40,41,73,157,38,50,32,101,,1*6F
$GLGSV,2,1,07,65,06,133,,76,32,145,,77,78,105,,78,33,338,,1*74
$GLGSV,2,2,07,81,27,252,,87,16,019,,88,48,320,,1*4B
$GAGSV,3,1,09,04,10,177,,06,12,201,26,09,09,224,27,10,67,248,38,7*7A
$GAGSV,3,2,09,11,39,228,,12,76,337,33,24,35,337,35,31,61,053,36,7*7B
$GAGSV,3,3,09,33,26,030,31,7*4F
$GBGSV,5,1,17,01,14,095,,02,71,157,28,03,49,110,,06,25,170,,1*78
$GBGSV,5,2,17,07,40,051,,08,55,108,,09,34,177,22,10,46,034,22,1*7A
$GBGSV,5,3,17,11,45,356,29,12,09,040,,13,56,131,,16,17,164,21,1*71
$GBGSV,5,4,17,21,07,083,,23,34,320,,24,33,148,28,25,83,235,32,1*71
$GBGSV,5,5,17,28,16,256,,1*4C
$GNGLL,1257.45650,N,07738.50228,E,183037.00,A,D*79
µb
8             b ¾ÿç æ   Sñ$GNRMC,183038.00,A,1257.45651,N,07738.50227,E,0.078,,141024,,,D,V*16
$GNVTG,,T,,M,0.078,N,0.144,K,D*36
$GNGGA,183038.00,1257.45651,N,07738.50227,E,2,12,0.69,903.6,M,-86.4,M,,0000*6C
$GNGSA,A,3,14,11,20,13,06,17,22,19,41,,,,1.07,0.69,0.82,1*0A
$GNGSA,A,3,,,,,,,,,,,,,1.07,0.69,0.82,2*01
$GNGSA,A,3,12,06,24,10,09,31,33,,,,,,1.07,0.69,0.82,3*09
$GNGSA,A,3,25,24,11,09,10,16,02,,,,,,1.07,0.69,0.82,4*0B
$GPGSV,4,1,16,05,15,192,,06,53,016,37,11,70,259,38,12,14,326,,1*6D
$GPGSV,4,2,16,13,11,204,24,14,32,114,30,15,00,229,,17,18,047,30,1*66
$GPGSV,4,3,16,19,31,022,32,20,42,171,35,22,49,089,35,24,34,285,,1*6E
$GPGSV,4,4,16,30,03,154,,40,60,241,40,41,73,157,38,50,32,101,,1*6F
$GLGSV,2,1,07,65,06,133,,76,32,145,,77,78,105,,78,33,338,,1*74
$GLGSV,2,2,07,81,27,252,,87,16,019,,88,48,320,,1*4B
$GAGSV,3,1,09,04,10,177,,06,12,201,26,09,09,224,28,10,67,248,38,7*75
$GAGSV,3,2,09,11,39,228,,12,76,337,33,24,35,337,35,31,61,053,36,7*7B
$GAGSV,3,3,09,33,26,030,31,7*4F
$GBGSV,5,1,17,01,14,095,,02,71,157,28,03,49,110,,06,25,170,,1*78
$GBGSV,5,2,17,07,40,051,,08,55,108,,09,34,177,22,10,46,034,21,1*79
$GBGSV,5,3,17,11,45,356,29,12,09,040,,13,56,131,,16,17,164,21,1*71
$GBGSV,5,4,17,21,07,083,,23,34,320,,24,33,148,28,25,83,235,33,1*70
$GBGSV,5,5,17,28,16,256,,1*4C
$GNGLL,1257.45651,N,07738.50227,E,183038.00,A,D*78
µb
8             b ¾ÿæ ç   Sï$GNRMC,183039.00,A,1257.45649,N,07738.50228,E,0.122,,141024,,,D,V*1F
$GNVTG,,T,,M,0.122,N,0.227,K,D*3E
$GNGGA,183039.00,1257.45649,N,07738.50228,E,2,12,0.69,903.8,M,-86.4,M,,0000*65
$GNGSA,A,3,14,11,20,13,06,17,22,19,41,,,,1.07,0.69,0.82,1*0A
$GNGSA,A,3,,,,,,,,,,,,,1.07,0.69,0.82,2*01
$GNGSA,A,3,12,06,24,10,09,31,33,,,,,,1.07,0.69,0.82,3*09
$GNGSA,A,3,25,24,11,09,10,16,02,,,,,,1.07,0.69,0.82,4*0B
$GPGSV,4,1,16,05,15,192,,06,53,016,38,11,70,259,39,12,14,326,,1*63
$GPGSV,4,2,16,13,11,204,24,14,32,114,30,15,00,229,,17,18,047,30,1*66
$GPGSV,4,3,16,19,31,022,33,20,42,171,35,22,49,089,35,24,34,285,,1*6F
$GPGSV,4,4,16,30,03,154,,40,60,241,40,41,73,157,38,50,32,101,,1*6F
$GLGSV,2,1,07,65,06,133,,76,32,145,,77,78,105,,78,33,338,,1*74
$GLGSV,2,2,07,81,27,252,,87,16,019,,88,48,320,,1*4B
$GAGSV,3,1,09,04,10,177,,06,12,201,27,09,09,224,28,10,67,248,38,7*74
$GAGSV,3,2,09,11,39,228,,12,76,337,33,24,35,337,35,31,61,053,35,7*78
$GAGSV,3,3,09,33,26,030,31,7*4F
$GBGSV,5,1,17,01,14,095,,02,71,157,28,03,49,110,,06,25,170,,1*78
$GBGSV,5,2,17,07,40,051,,08,55,108,,09,34,177,21,10,46,034,22,1*79
$GBGSV,5,3,17,11,45,356,29,12,09,040,,13,56,131,,16,17,164,21,1*71
$GBGSV,5,4,17,21,07,083,,23,34,320,,24,33,148,28,25,83,235,33,1*70
$GBGSV,5,5,17,28,16,256,,1*4C
$GNGLL,1257.45649,N,07738.50228,E,183039.00,A,D*7F
µb
8             b ¾ÿéí   _*$GNRMC,183040.00,A,1257.45647,N,07738.50230,E,0.044,,141024,,,D,V*17
$GNVTG,,T,,M,0.044,N,0.082,K,D*32
$GNGGA,183040.00,1257.45647,N,07738.50230,E,2,12,0.69,903.8,M,-86.4,M,,0000*6C
$GNGSA,A,3,14,11,20,13,06,17,22,19,41,,,,1.10,0.69,0.85,1*0B
$GNGSA,A,3,,,,,,,,,,,,,1.10,0.69,0.85,2*00
$GNGSA,A,3,12,06,24,10,09,31,33,,,,,,1.10,0.69,0.85,3*08
$GNGSA,A,3,25,24,11,09,10,16,02,,,,,,1.10,0.69,0.85,4*0A
$GPGSV,4,1,16,05,15,192,,06,53,016,38,11,70,259,38,12,14,326,,1*62
$GPGSV,4,2,16,13,11,204,24,14,32,114,30,15,00,229,,17,18,047,29,1*6E
$GPGSV,4,3,16,19,31,022,33,20,42,171,35,22,49,089,35,24,34,285,,1*6F
$GPGSV,4,4,16,30,03,154,,40,60,241,39,41,73,157,37,50,32,101,,1*6E
$GLGSV,2,1,07,65,06,133,,76,32,145,,77,78,105,,78,33,338,,1*74
$GLGSV,2,2,07,81,27,252,,87,16,019,,88,48,320,,1*4B
$GAGSV,3,1,09,04,10,177,,06,12,201,26,09,09,224,28,10,67,248,37,7*7A
$GAGSV,3,2,09,11,39,228,,12,76,337,33,24,35,337,35,31,61,053,34,7*79
$GAGSV,3,3,09,33,26,030,30,7*4E
$GBGSV,5,1,17,01,14,095,,02,71,157,27,03,49,110,,06,25,170,,1*77
$GBGSV,5,2,17,07,40,051,,08,55,108,,09,34,177,22,10,46,034,22,1*7A
$GBGSV,5,3,17,11,45,356,29,12,09,040,,13,56,131,,16,17,164,21,1*71
$GBGSV,5,4,17,21,07,083,,23,34,320,,24,33,148,28,25,83,235,32,1*71
$GBGSV,5,5,17,28,16,256,,1*4C
$GNGLL,1257.45647,N,07738.50230,E,183040.00,A,D*76
µb
8             b ¾ÿé ç   V$GNRMC,183041.00,A,1257.45646,N,07738.50231,E,0.021,,141024,,,D,V*15
$GNVTG,,T,,M,0.021,N,0.038,K,D*30
$GNGGA,183041.00,1257.45646,N,07738.50231,E,2,12,0.69,903.9,M,-86.4,M,,0000*6C
$GNGSA,A,3,14,11,20,13,06,17,22,19,41,,,,1.10,0.69,0.85,1*0B
$GNGSA,A,3,,,,,,,,,,,,,1.10,0.69,0.85,2*00
$GNGSA,A,3,12,06,24,10,09,31,33,,,,,,1.10,0.69,0.85,3*08
$GNGSA,A,3,25,24,11,09,10,16,,,,,,,1.10,0.69,0.85,4*08
$GPGSV,4,1,16,05,15,192,,06,53,016,38,11,70,259,38,12,14,326,,1*62
$GPGSV,4,2,16,13,11,204,24,14,32,114,31,15,00,229,,17,18,047,29,1*6F
$GPGSV,4,3,16,19,31,022,34,20,42,171,35,22,49,089,35,24,34,285,,1*68
$GPGSV,4,4,16,30,03,154,,40,60,241,40,41,73,157,37,50,32,101,,1*60
$GLGSV,2,1,07,65,06,133,,76,32,145,,77,78,105,,78,33,338,,1*74
$GLGSV,2,2,07,81,27,252,,87,16,019,,88,48,320,,1*4B
$GAGSV,3,1,09,04,10,177,,06,12,201,27,09,09,224,28,10,67,248,37,7*7B
$GAGSV,3,2,09,11,39,228,,12,76,337,33,24,35,337,35,31,61,053,35,7*78
$GAGSV,3,3,09,33,26,030,30,7*4E
$GBGSV,5,1,17,01,14,095,,02,71,157,,03,49,110,28,06,25,170,,1*78
$GBGSV,5,2,17,07,40,051,,08,55,108,,09,34,177,22,10,46,034,22,1*7A
$GBGSV,5,3,17,11,45,356,29,12,09,040,,13,56,131,,16,17,164,20,1*70
$GBGSV,5,4,17,21,07,083,,23,34,320,,24,33,148,28,25,83,235,33,1*70
$GBGSV,5,5,17,28,16,256,,1*4C
$GNGLL,1257.45646,N,07738.50231,E,183041.00,A,D*77
µb
8             b ¾ÿìæ   Z$GNRMC,183042.00,A,1257.45646,N,07738.50232,E,0.012,,141024,,,D,V*15
$GNVTG,,T,,M,0.012,N,0.022,K,D*3B
$GNGGA,183042.00,1257.45646,N,07738.50232,E,2,12,0.69,904.0,M,-86.4,M,,0000*62
$GNGSA,A,3,14,11,20,13,06,17,22,19,41,,,,1.10,0.69,0.85,1*0B
$GNGSA,A,3,,,,,,,,,,,,,1.10,0.69,0.85,2*00
$GNGSA,A,3,12,06,24,10,09,31,33,,,,,,1.10,0.69,0.85,3*08
$GNGSA,A,3,25,24,11,09,10,16,,,,,,,1.10,0.69,0.85,4*08
$GPGSV,4,1,16,05,15,192,,06,53,016,38,11,70,259,38,12,14,326,,1*62
$GPGSV,4,2,16,13,11,204,24,14,32,114,32,15,00,229,,17,18,047,30,1*64
$GPGSV,4,3,16,19,31,022,35,20,42,171,35,22,49,089,34,24,34,285,,1*68
$GPGSV,4,4,16,30,03,154,,40,60,241,40,41,73,157,37,50,32,101,,1*60
$GLGSV,2,1,07,65,06,133,,76,32,145,,77,78,105,,78,33,338,,1*74
$GLGSV,2,2,07,81,27,252,,87,16,019,,88,48,320,,1*4B
$GAGSV,3,1,09,04,10,177,,06,12,201,27,09,09,224,28,10,67,248,37,7*7B
$GAGSV,3,2,09,11,39,228,,12,76,337,33,24,35,337,35,31,61,053,36,7*7B
$GAGSV,3,3,09,33,26,030,30,7*4E
$GBGSV,5,1,17,01,14,095,,02,71,157,,03,49,110,27,06,25,170,,1*77
$GBGSV,5,2,17,07,40,051,,08,55,108,,09,34,177,22,10,46,034,21,1*79
$GBGSV,5,3,17,11,45,356,29,12,09,040,,13,56,131,,16,17,164,21,1*71
$GBGSV,5,4,17,21,07,083,,23,34,320,,24,33,148,28,25,83,235,33,1*70
$GBGSV,5,5,17,28,16,256,,1*4C
$GNGLL,1257.45646,N,07738.50232,E,183042.00,A,D*77
µb
8             b ¾ÿè ë   Y
$GNRMC,183043.00,A,1257.45644,N,07738.50237,E,0.142,,141024,,,D,V*17
$GNVTG,,T,,M,0.142,N,0.263,K,D*38
$GNGGA,183043.00,1257.45644,N,07738.50237,E,2,12,0.66,904.0,M,-86.4,M,,0000*6B
$GNGSA,A,3,14,11,20,13,06,17,22,19,41,,,,1.08,0.66,0.85,1*0D
$GNGSA,A,3,,,,,,,,,,,,,1.08,0.66,0.85,2*06
$GNGSA,A,3,12,06,24,10,09,31,33,,,,,,1.08,0.66,0.85,3*0E
$GNGSA,A,3,25,24,11,09,10,16,03,,,,,,1.08,0.66,0.85,4*0D
$GPGSV,4,1,16,05,15,192,,06,53,016,36,11,70,259,39,12,14,326,,1*6D
$GPGSV,4,2,16,13,11,204,25,14,32,114,32,15,00,229,,17,18,047,31,1*64
$GPGSV,4,3,16,19,31,022,35,20,42,171,35,22,49,089,36,24,34,285,,1*6A
$GPGSV,4,4,16,30,03,154,,40,60,241,40,41,73,157,37,50,32,101,,1*60
$GLGSV,2,1,07,65,06,133,,76,32,145,,77,78,105,,78,33,338,,1*74
$GLGSV,2,2,07,81,27,252,,87,16,019,,88,48,320,,1*4B
$GAGSV,3,1,09,04,10,177,,06,12,201,27,09,09,224,28,10,67,248,37,7*7B
$GAGSV,3,2,09,11,39,228,,12,76,337,33,24,35,337,35,31,61,054,35,7*7F
$GAGSV,3,3,09,33,26,030,31,7*4F
$GBGSV,5,1,17,01,14,095,,02,71,157,,03,49,110,27,06,25,170,,1*77
$GBGSV,5,2,17,07,40,051,,08,55,108,,09,34,177,22,10,46,034,22,1*7A
$GBGSV,5,3,17,11,45,356,29,12,09,040,,13,56,131,,16,17,164,21,1*71
$GBGSV,5,4,17,21,07,083,,23,34,320,,24,33,148,28,25,83,235,33,1*70
$GBGSV,5,5,17,28,16,256,,1*4C
$GNGLL,1257.45644,N,07738.50237,E,183043.00,A,D*71
µb
8             b ¾ÿê ê   \!$GNRMC,183044.00,A,1257.45642,N,07738.50241,E,0.126,,141024,,,D,V*15
$GNVTG,,T,,M,0.126,N,0.233,K,D*3F
$GNGGA,183044.00,1257.45642,N,07738.50241,E,2,12,0.66,904.1,M,-86.4,M,,0000*6A
$GNGSA,A,3,14,11,20,13,06,17,22,19,41,,,,1.08,0.66,0.85,1*0D
$GNGSA,A,3,,,,,,,,,,,,,1.08,0.66,0.85,2*06
$GNGSA,A,3,12,06,24,10,09,31,33,,,,,,1.08,0.66,0.85,3*0E
$GNGSA,A,3,25,24,11,09,10,16,03,,,,,,1.08,0.66,0.85,4*0D
$GPGSV,4,1,16,05,15,192,,06,53,016,37,11,70,259,38,12,14,326,,1*6D
$GPGSV,4,2,16,13,11,204,25,14,32,114,31,15,00,229,,17,18,047,31,1*67
$GPGSV,4,3,16,19,31,022,35,20,42,171,34,22,49,089,36,24,34,285,,1*6B
$GPGSV,4,4,16,30,03,154,,40,60,241,40,41,73,157,37,50,32,101,,1*60
$GLGSV,2,1,07,65,06,133,,76,32,145,,77,78,105,,78,33,338,,1*74
$GLGSV,2,2,07,81,27,252,,87,16,019,,88,48,320,,1*4B
$GAGSV,3,1,09,04,10,177,,06,12,201,27,09,09,224,28,10,67,248,38,7*74
$GAGSV,3,2,09,11,39,228,,12,76,337,33,24,35,337,35,31,61,054,34,7*7E
$GAGSV,3,3,09,33,25,030,32,7*4F
$GBGSV,5,1,17,01,14,095,,02,71,157,,03,49,110,27,06,25,170,,1*77
$GBGSV,5,2,17,07,40,051,,08,55,108,,09,34,177,22,10,46,034,22,1*7A
$GBGSV,5,3,17,11,45,356,29,12,09,040,,13,56,131,,16,17,164,20,1*70
$GBGSV,5,4,17,21,07,083,,23,34,320,,24,33,148,28,25,83,235,33,1*70
$GBGSV,5,5,17,28,16,256,,1*4C
$GNGLL,1257.45642,N,07738.50241,E,183044.00,A,D*71
µb
8             b ¾ÿé é   Y$GNRMC,183045.00,A,1257.45642,N,07738.50244,E,0.025,,141024,,,D,V*13
$GNVTG,,T,,M,0.025,N,0.046,K,D*3D
$GNGGA,183045.00,1257.45642,N,07738.50244,E,2,12,0.66,904.2,M,-86.4,M,,0000*6D
$GNGSA,A,3,14,11,20,13,06,17,22,19,41,,,,1.08,0.66,0.85,1*0D
$GNGSA,A,3,,,,,,,,,,,,,1.08,0.66,0.85,2*06
$GNGSA,A,3,12,06,24,10,09,31,33,,,,,,1.08,0.66,0.85,3*0E
$GNGSA,A,3,25,24,11,09,10,16,03,,,,,,1.08,0.66,0.85,4*0D
$GPGSV,4,1,16,05,15,192,,06,53,016,37,11,70,259,38,12,14,326,,1*6D
$GPGSV,4,2,16,13,11,204,25,14,32,114,31,15,00,229,,17,18,047,31,1*67
$GPGSV,4,3,16,19,31,022,35,20,42,171,34,22,49,089,35,24,34,285,,1*68
$GPGSV,4,4,16,30,03,154,,40,60,241,40,41,73,157,37,50,32,101,,1*60
$GLGSV,2,1,07,65,06,133,,76,32,145,,77,78,105,,78,33,338,,1*74
$GLGSV,2,2,07,81,27,252,,87,16,019,,88,48,320,,1*4B
$GAGSV,3,1,09,04,10,177,,06,12,201,27,09,09,224,28,10,67,248,37,7*7B
$GAGSV,3,2,09,11,39,228,,12,76,337,33,24,35,337,35,31,61,054,34,7*7E
$GAGSV,3,3,09,33,25,030,32,7*4F
$GBGSV,5,1,17,01,14,095,,02,71,157,,03,49,110,27,06,25,170,,1*77
$GBGSV,5,2,17,07,40,051,,08,55,108,,09,34,177,21,10,46,034,22,1*79
$GBGSV,5,3,17,11,45,356,29,12,09,040,,13,56,131,,16,17,164,20,1*70
$GBGSV,5,4,17,21,07,083,,23,34,320,,24,33,148,28,25,83,235,32,1*71
$GBGSV,5,5,17,28,16,256,,1*4C
$GNGLL,1257.45642,N,07738.50244,E,183045.00,A,D*75
µb
8             b ¾ÿç è   Uù$GNRMC,183046.00,A,1257.45641,N,07738.50246,E,0.034,,141024,,,D,V*11
$GNVTG,,T,,M,0.034,N,0.064,K,D*3D
$GNGGA,183046.00,1257.45641,N,07738.50246,E,2,12,0.69,904.2,M,-86.4,M,,0000*60
$GNGSA,A,3,14,11,20,13,06,17,22,19,41,,,,1.10,0.69,0.85,1*0B
$GNGSA,A,3,,,,,,,,,,,,,1.10,0.69,0.85,2*00
$GNGSA,A,3,12,06,24,10,09,31,33,,,,,,1.10,0.69,0.85,3*08
$GNGSA,A,3,25,24,11,09,10,16,,,,,,,1.10,0.69,0.85,4*08
$GPGSV,4,1,16,05,15,192,,06,53,016,37,11,70,259,38,12,14,326,,1*6D
$GPGSV,4,2,16,13,11,204,26,14,32,114,31,15,00,229,,17,18,047,32,1*67
$GPGSV,4,3,16,19,31,022,34,20,42,171,34,22,49,089,35,24,34,285,,1*69
$GPGSV,4,4,16,30,03,154,,40,60,241,40,41,73,157,37,50,32,101,,1*60
$GLGSV,2,1,07,65,06,133,,76,32,145,,77,78,105,,78,33,338,,1*74
$GLGSV,2,2,07,81,27,252,,87,16,019,,88,48,320,,1*4B
$GAGSV,3,1,09,04,10,177,,06,12,201,27,09,09,224,28,10,67,248,37,7*7B
$GAGSV,3,2,09,11,39,228,,12,76,337,33,24,35,337,35,31,61,054,35,7*7F
$GAGSV,3,3,09,33,25,030,32,7*4F
$GBGSV,5,1,17,01,14,095,,02,71,157,28,03,49,110,,06,25,170,,1*78
$GBGSV,5,2,17,07,40,051,,08,55,108,,09,34,177,22,10,46,034,23,1*7B
$GBGSV,5,3,17,11,45,356,29,12,09,040,,13,56,131,,16,17,164,20,1*70
$GBGSV,5,4,17,21,07,083,,23,34,320,,24,33,148,28,25,83,235,32,1*71
$GBGSV,5,5,17,28,16,256,,1*4C
$GNGLL,1257.45641,N,07738.50246,E,183046.00,A,D*77
µb
8             b ¾ÿ ç è   Tò$GNRMC,183047.00,A,1257.45642,N,07738.50247,E,0.028,,141024,,,D,V*1F
$GNVTG,,T,,M,0.028,N,0.052,K,D*35
$GNGGA,183047.00,1257.45642,N,07738.50247,E,2,12,0.69,904.3,M,-86.4,M,,0000*62
$GNGSA,A,3,14,11,20,13,06,17,22,19,41,,,,1.07,0.69,0.82,1*0A
$GNGSA,A,3,,,,,,,,,,,,,1.07,0.69,0.82,2*01
$GNGSA,A,3,12,06,24,10,09,31,33,,,,,,1.07,0.69,0.82,3*09
$GNGSA,A,3,25,24,11,09,10,16,02,,,,,,1.07,0.69,0.82,4*0B
$GPGSV,4,1,16,05,15,192,,06,53,016,38,11,70,259,38,12,14,326,,1*62
$GPGSV,4,2,16,13,11,204,26,14,32,114,31,15,00,229,,17,18,047,31,1*64
$GPGSV,4,3,16,19,31,022,34,20,42,171,35,22,49,089,35,24,34,285,,1*68
$GPGSV,4,4,16,30,03,154,,40,60,241,40,41,73,157,37,50,32,101,,1*60
$GLGSV,2,1,07,65,06,133,,76,32,145,,77,78,105,,78,33,338,,1*74
$GLGSV,2,2,07,81,27,252,,87,16,019,,88,48,320,,1*4B
$GAGSV,3,1,09,04,10,177,,06,12,201,27,09,09,224,28,10,67,248,38,7*74
$GAGSV,3,2,09,11,39,228,,12,76,337,33,24,35,337,35,31,61,054,36,7*7C
$GAGSV,3,3,09,33,25,030,32,7*4F
$GBGSV,5,1,17,01,14,095,,02,71,157,28,03,49,110,,06,25,170,,1*78
$GBGSV,5,2,17,07,40,051,,08,55,108,,09,34,177,22,10,46,034,22,1*7A
$GBGSV,5,3,17,11,45,356,29,12,09,040,,13,56,131,,16,17,164,20,1*70
$GBGSV,5,4,17,21,07,083,,23,34,320,,24,33,148,28,25,83,235,32,1*71
$GBGSV,5,5,17,28,16,256,,1*4C
$GNGLL,1257.45642,N,07738.50247,E,183047.00,A,D*74
µb
8             b ¾ÿéç   X
$GNRMC,183048.00,A,1257.45644,N,07738.50248,E,0.035,,141024,,,D,V*15
$GNVTG,,T,,M,0.035,N,0.065,K,D*3D
$GNGGA,183048.00,1257.45644,N,07738.50248,E,2,12,0.69,904.3,M,-86.4,M,,0000*64
$GNGSA,A,3,14,11,20,13,06,17,22,19,41,,,,1.07,0.69,0.82,1*0A
$GNGSA,A,3,,,,,,,,,,,,,1.07,0.69,0.82,2*01
$GNGSA,A,3,12,06,24,10,09,31,33,,,,,,1.07,0.69,0.82,3*09
$GNGSA,A,3,25,24,11,09,10,16,02,,,,,,1.07,0.69,0.82,4*0B
$GPGSV,4,1,16,05,15,192,,06,53,016,38,11,70,259,38,12,14,326,,1*62
$GPGSV,4,2,16,13,11,204,26,14,32,114,31,15,00,229,,17,18,047,32,1*67
$GPGSV,4,3,16,19,31,022,34,20,42,171,34,22,49,089,35,24,34,285,,1*69
$GPGSV,4,4,16,30,03,154,,40,60,241,39,41,73,157,37,50,32,101,,1*6E
$GLGSV,2,1,07,65,06,133,,76,32,145,,77,78,105,,78,33,338,,1*74
$GLGSV,2,2,07,81,27,252,,87,16,019,,88,48,320,,1*4B
$GAGSV,3,1,09,04,10,177,,06,12,201,27,09,09,224,28,10,67,248,37,7*7B
$GAGSV,3,2,09,11,39,228,,12,76,337,33,24,35,337,35,31,61,054,35,7*7F
$GAGSV,3,3,09,33,25,030,31,7*4C
$GBGSV,5,1,17,01,14,095,,02,71,157,28,03,49,110,,06,25,170,,1*78
$GBGSV,5,2,17,07,40,051,,08,55,108,,09,34,177,22,10,46,034,22,1*7A
$GBGSV,5,3,17,11,45,356,29,12,09,040,,13,56,131,,16,17,164,20,1*70
$GBGSV,5,4,17,21,07,083,,23,34,320,,24,33,148,28,25,83,235,32,1*71
$GBGSV,5,5,17,28,16,256,,1*4C
$GNGLL,1257.45644,N,07738.50248,E,183048.00,A,D*72
µb
8             b ¾ÿè é   X
$GNRMC,183049.00,A,1257.45644,N,07738.50249,E,0.020,,141024,,,D,V*11
$GNVTG,,T,,M,0.020,N,0.037,K,D*3E
$GNGGA,183049.00,1257.45644,N,07738.50249,E,2,12,0.69,904.3,M,-86.4,M,,0000*64
$GNGSA,A,3,14,11,20,13,06,17,22,19,41,,,,1.07,0.69,0.82,1*0A
$GNGSA,A,3,,,,,,,,,,,,,1.07,0.69,0.82,2*01
$GNGSA,A,3,12,06,24,10,09,31,33,,,,,,1.07,0.69,0.82,3*09
$GNGSA,A,3,25,24,11,09,10,16,02,,,,,,1.07,0.69,0.82,4*0B
$GPGSV,4,1,16,05,15,192,,06,53,016,38,11,70,259,38,12,14,326,,1*62
$GPGSV,4,2,16,13,11,204,26,14,32,114,32,15,00,229,,17,18,047,31,1*67
$GPGSV,4,3,16,19,31,022,34,20,42,171,35,22,49,089,36,24,34,285,,1*6B
$GPGSV,4,4,16,30,03,154,,40,60,241,40,41,73,157,37,50,32,101,,1*60
$GLGSV,2,1,07,65,06,133,,76,32,145,,77,78,105,,78,33,338,,1*74
$GLGSV,2,2,07,81,27,252,,87,16,019,,88,48,320,,1*4B
$GAGSV,3,1,09,04,10,177,,06,12,201,27,09,09,224,28,10,67,248,37,7*7B
$GAGSV,3,2,09,11,39,228,,12,76,337,33,24,35,337,35,31,61,054,35,7*7F
$GAGSV,3,3,09,33,25,030,30,7*4D
$GBGSV,5,1,17,01,14,095,,02,71,157,28,03,49,110,,06,25,170,,1*78
$GBGSV,5,2,17,07,40,051,,08,55,108,,09,34,177,22,10,46,034,22,1*7A
